site,lat,lng,zip,name,address,phone,email,web
"Marstonpubs","51.59877","-1.793553","","Abbey Meads","Elstree Way, Swindon, Wiltshire, SN25 4YX","01793 726208","AbbeyMeads.Swindon@phoenixpub.co.uk","https://www.abbeymeadsswindon.co.uk/"
"Marstonpubs","53.782936","-1.068534","","Abbey Vaults","James Street, Selby, North Yorkshire, YO8 4PY","01757 702857","AbbeyVaults.Selby@phoenixpub.co.uk","https://www.abbeyvaultspub.co.uk/"
"Marstonpubs","52.52662","-1.438416","","Acorn","Horeston Grange, Nuneaton, Warwickshire, CV11 6GU","02476 352166","acorn.nuneaton@marstons.co.uk","https://www.acornpub.co.uk/"
"Marstonpubs","53.286995","-0.30256","","Adam & Eve","Market Place, Wragby, Lincolnshire, LN8 5QU","","AdamAndEve.Wragby@phoenixpub.co.uk",""
"Marstonpubs","50.607822","-2.474496","","Admiral Hardy","Chickerell Road, Weymouth, Dorset, DT4 0QU","01305 784754","AdmiralHardy.Weymouth@phoenixpub.co.uk","https://www.admiralhardypub.co.uk/"
"Marstonpubs","51.16223","-2.986377","","Admiral's Table","Bristol Road, Bridgwater, Somerset, TA6 4TN","01278685671","AdmiralsTable.Bridgwater@marstons.co.uk","https://www.admiralstablepubbridgwater.co.uk/"
"Marstonpubs","51.496147","-3.170612","","Albany Hotel","105 Donald Street, 103225, Cardiff, CF24 4TL","02920 311075","AlbanyHotel.Roath@phoenixpub.co.uk","https://sabrainpubs.com/pubs-and-hotels/south-wales/cardiff/albany"
"Marstonpubs","53.31256","-4.633134","","Albert Vaults","32 Stanley Street, Holyhead, Anglesey, Gwynedd, LL65 1HL","01407238349","albert.vaults.holyhead@phoenixpub.co.uk",""
"Marstonpubs","52.759884","-1.93406","","Albion","17 Albion Street, Rugeley, Staffordshire, WS15 2BY","01889358416","albion.rugeley@phoenixpub.co.uk",""
"Marstonpubs","53.023953","-2.174509","","Albion","Hanley, Stoke on Trent, Staffordshire, ST1 1QS","01782 287124","albion.stoke@phoenixpub.co.uk",""
"Marstonpubs","52.8097","-1.665422","","Albion","Shobnall Road, Burton on Trent, Staffordshire, DE14 2BE","01283 568197","albion.burtonontrent@marstons.co.uk","https://www.albionpubburtonontrent.co.uk/"
"Marstonpubs","52.695698","-2.442715","","Albion Inn","Station Hill, St Georges, Telford, Shropshire, TF2 9AD","01952614193","simm2@hotmail.co.uk","https://www.thealbioninn.co.uk/"
"Marstonpubs","53.225494","-4.127575","","Albion Inn","160 High Street, Bangor, Gwynedd, LL57 1NU","01248208556","albion.inn.bangor@phoenixpub.co.uk",""
"Marstonpubs","53.200165","-1.02732","","Alders","Worksop Road, Ollerton, Nottinghamshire, NG22 9DR","01623 272055","Alders.Ollerton@marstons.co.uk","https://www.alderspubollerton.co.uk/"
"Marstonpubs","52.824684","-1.429225","","Alma Inn","59 Derby Road, Melbourne, Derby, Derbyshire, DE73 8FE","01332 865607","Alma.Melbourne@phoenixpub.co.uk",""
"Marstonpubs","53.845512","-0.500337","","Altisidora","Bishop Burton, Beverley, East Yorkshire, HU17 8QF","01964 550284","altisidora.beverley@marstons.co.uk","https://www.altisidorapubbeverley.co.uk/"
"Marstonpubs","54.997158","-1.441063","","Alum House","River Drive, South Shields, Tyne and Wear, NE33 1JR","0191 4277245","jeffdean55@icloud.com","https://alumalehouse.com/"
"Marstonpubs","53.107597","-2.952345","","Alyn Hotel","Chester Road, Rossett, Wrexham, Clwyd, LL12 0HE","01244 570368","Alyn.Wrexham@phoenixpub.co.uk","https://www.thealyn.co.uk/"
"Marstonpubs","52.800945","-1.632072","","Anchor","5 New Street, Burton upon Trent, Staffordshire, DE14 3QN","01283 561005","anchor_inn@hotmail.co.uk",""
"Marstonpubs","50.922558","-1.474495","","Anchor","Test Lane,Redbridge, Southampton, Hampshire, SO16 9BH","02381 843472","anchor.southampton@phoenixpub.co.uk",""
"Marstonpubs","52.18415","-2.219507","","Anchor Inn","Diglis Road, Worcester, Worcestershire, WR5 3BW","01905 351094","nicgibbons33@icloud.com","https://www.theanchorworcester.co.uk/"
"Marstonpubs","52.639614","-1.920645","","Anchor Inn","Brownhills, Walsall, West Midlands, WS8 6DP","01543360219","anchor.walsall@phoenixpub.co.uk","https://www.anchorinnpubwalsall.co.uk/"
"Marstonpubs","52.8245","-1.253174","","Anchor Inn","Bollards Lane, Sutton Bonington, Leicestershire, LE12 5PA","01509 673648","jfward@btconnect.com",""
"Marstonpubs","52.528225","-1.348228","","Anchor Inn","Church Street, Burbage, Leicestershire, LE10 2DA","01455636107","aden_woodhouse@hotmail.com","http://www.anchorburbage.com/"
"Marstonpubs","52.570686","-1.644712","","Anchor Inn","Hurley 118 Hurley Common, Atherstone, Warwickshire, CV9 2LR","01827 870157","tracij@sky.com","https://anchorinn.online/"
"Marstonpubs","54.546883","-3.590947","","Anchor Vaults","Market Place, Whitehaven, Cumbria, CA28 7JB","01946 328176","AnchorVaults.Whitehaven@phoenixpub.co.uk",""
"Marstonpubs","52.336517","-2.279158","","Angel","Severnside, Stourport on Severn, Worcestershire, DY13 9EW","01299513172","Angel.StourportonSevern@phoenixpub.co.uk","https://www.angelpubstourport.co.uk/"
"Marstonpubs","52.80647","-1.608291","","Anglesey Arms","Winshill, Burton on Trent, Staffordshire, DE15 0JW","01283 564791","anglesey.burton@phoenixpub.co.uk",""
"Marstonpubs","53.13973","-4.278353","","Anglesey Arms","Tyn-y-Cae, Caernafon, Gwynedd, LL55 1SG","01286 672158","geoff-harvey@hotmail.co.uk","https://anglesey-arms.business.site/"
"Marstonpubs","53.7717","-0.271139","","Apollo","1082 Holderness Road, Hull, East Yorkshire, HU9 4AH","01482703908","apollo.hull@marstons.co.uk","https://www.apollohull.co.uk/"
"Marstonpubs","52.54604","-0.214236","","Apple Cart","Bellona Drive, Peterborough, Cambridgeshire, PE2 8GP","01733302480","applecart.peterborough@marstons.co.uk","https://www.applecartpubpeterborough.co.uk/"
"Marstonpubs","52.5394","-2.087549","","Apple Tree Inn","5 Central Drive, Bilston, West Midlands, WV14 9EW","01902 887642","appletree.coseley@phoenixpub.co.uk","https://www.appletreeinnbilston.co.uk/"
"Marstonpubs","50.94993","-2.664474","","Arrow","The Forum, Yeovil, Somerset, BA21 3TL","01935476972","Arrow.Yeovil@phoenixpub.co.uk","https://www.arrowyeovil.co.uk/"
"Marstonpubs","52.74634","-1.909935","","Ash Tree","Armitage Road, Rugeley, Staffordshire, WS15 1PL","01889 578314","ashtree.rugeley@marstons.co.uk","https://www.ashtreepub.co.uk/"
"Marstonpubs","52.323452","-2.291826","","Astley Cross Inn","80 Areley Common, Stourport on Severn, Worcestershire, DY13 0NP","01299 823092","AstleyCross.Stourport@phoenixpub.co.uk",""
"Marstonpubs","52.51532","-1.455653","","Attleborough Arms","Highfield Road, Nuneaton, Warwickshire, CV11 4PL","02476 383231","attleborougharms.warwickshire@marstons.co.uk","https://www.attleborougharmspub.co.uk/"
"Marstonpubs","51.45634","-3.359606","","Aubrey Arms","Swansea Road, 100065, Cardiff, CF5 6TQ","01446 781210","AubreyArms.Bonvilston@marstons.co.uk","http://www.aubreypubbonvilston.co.uk/"
"Marstonpubs","52.237995","-0.896945","","Auctioneers","10-12 Market Square, Northampton, Northamptonshire, NN1 2DL","01604 259849","Auctioneers.Northampton@phoenixpub.co.uk","https://www.auctioneerspub.co.uk/"
"Marstonpubs","51.850338","-2.257641","","Avenue","227 Bristol Road, Gloucester, Gloucestershire, GL1 5TH","01452 423468","avenue.gloucester@phoenixpub.co.uk","https://www.avenuepub.co.uk/"
"Marstonpubs","51.07171","-1.79646","","Avon Brewery","75 Castle Street,  Salisbury, Wiltshire, SP1 3SP","01722 33 4744","AvonBrewery.Salisbury@phoenixpub.co.uk","https://www.theavonbrewery.co.uk/"
"Marstonpubs","51.40611","-1.325768","","Bacon Arms","10 Oxford Street, Newbury, Berkshire, RG14 1JB","0163531822","Bacon.Newbury@phoenixpub.co.uk","https://www.baconarmspub.co.uk/"
"Marstonpubs","51.52481","-2.539092","","Bailey's Court Inn","Stoke Gifford, Bristol, Gloucestershire, BS32 8BH","01179 236486","BaileysCourtInn.Bristol@marstons.co.uk","https://www.baileyscourtinnpub.co.uk/"
"Marstonpubs","50.709126","-2.430709","","Bakers Arms","140 Monmouth Road,  Dorchester, Dorset, DT1 2DH","01305264382","roseray3@gmail.com",""
"Marstonpubs","52.127007","-2.315694","","Bakery Inn","Worcester Road, Malvern Link, Worcestershire, WR14 1SS","01684 574465","Bakery.Malvern@phoenixpub.co.uk","http://www.kings-arms-horbury.business.site/"
"Marstonpubs","53.577072","-2.594189","","Balcarres Arms","1 Copperas Lane, Aspull, Wigan, Greater Manchester, WN2 1PA","01942 833018","Balcarres.Arms.Wigan@phoenixpub.co.uk","https://www.balcarrespubwigan.co.uk/"
"Marstonpubs","52.535057","-2.413616","","Bandon Arms","Mill Street, Bridgnorth, Shropshire, WV15 5AG","01746763135","bandonarms.bridgnorth@marstons.co.uk","https://www.bandonarmspub.co.uk/"
"Marstonpubs","54.60144","-3.138951","","Bank Tavern","47 Main Street, Keswick, Cumbria, CA12 5DS","01768 772663","dixon.ian@btconnect.com","http://www.banktavern.co.uk/"
"Marstonpubs","52.56269","-2.076031","","Bankfield Inn","Bankfield Road, Bilston, West Midlands, WV14 0EE","01902504795","bankfieldinnpub.bilston@marstons.co.uk","https://www.bankfieldinnpubbilston.co.uk/"
"Marstonpubs","51.403565","-0.256304","","Bar Malden","1-3 St. George's Square, New Malden, Greater London, KT3 4HG","02089420656","barmalden.newmalden@phoenixpub.co.uk","https://www.barmaldenpub.co.uk/"
"Marstonpubs","52.63725","-2.449764","","Barley Mow","16 Court Street, Madeley, Telford, Shropshire, TF7 5EB","01952 877136","barleymow.telford@phoenixpub.co.uk",""
"Marstonpubs","52.21291","-2.17731","","Barn Owl","Warndon, Worcester, Worcestershire, WR4 9UP","01905 458615","barnowl.worcester@marstons.co.uk","https://www.barnowlpubworcester.co.uk/"
"Marstonpubs","51.82093","-2.268746","","Barn Owl","Thatcham Avenue, Gloucester, Gloucestershire, GL2 2GS","01452 720523","BarnOwl.Quedgeley@marstons.co.uk","https://www.barnowlpubquedgeley.co.uk/"
"Marstonpubs","52.760944","-1.702768","","Barton Turns Inn","Barton Turns, Burton Upon Trent, Staffordshire, DE13 8EA","01283 480682","sheila-woodcock@hotmail.co.uk",""
"Marstonpubs","53.260838","-2.126588","","Bate Hall Hotel","Chestergate, Macclesfield, Cheshire, SK11 6BX","01625 611342","batehallhotel.macclesfield@phoenixpub.co.uk","https://www.batehallpubmacclesfield.co.uk/"
"Marstonpubs","51.0405","-0.356951","","Bax Castle","Two Mile Ash, Southwater, Horsham, West Sussex, RH13 0LA","01403730369","andrewkeeley@btconnect.com","http://www.baxcastle.co.uk/"
"Marstonpubs","54.448242","-1.156535","","Bay Horse","High Street, Great Broughton, Middlesborough, North Yorkshire, TS9 7EF","01642 712319","management@thebayhorse-greatbroughton.co.uk","https://thebayhorse-greatbroughton.co.uk/"
"Marstonpubs","54.62989","-1.613122","","Bay Horse","The Green, Middridge, Newton Aycliffe, County Durham, DL5 7JD","01325 312653","thebayhorsemiddridge@gmail.com",""
"Marstonpubs","53.86603","-0.495816","","Bay Horse","Main Street, Cherry Burton, Beverley, East Yorkshire, HU17 7RF","01964769242","BayHorse.CherryBurton@phoenixpub.co.uk",""
"Marstonpubs","54.376247","-1.631765","","Bay Horse","38 Low Green, Catterick Village, North Yorkshire, DL10 7LP","01748 518400","bay.horse.catterick@phoenixpub.co.uk","https://www.bayhorsecatterickvillage.co.uk/"
"Marstonpubs","52.34149","-2.259551","","Bay Horse","29 tlebury Road, Worcestershire, Stourport on Severn, DY13 9JA","01299488380","bay.horse.worcs@phoenixpub.co.uk","https://www.bayhorsestourportonsevern.co.uk/"
"Marstonpubs","52.437443","-1.943763","","Bear & Staff","Selly Oak, Birmingham, West Midlands, B29 6ND","01214714207","bearandstaff.birmingham@phoenixpub.co.uk","https://www.bearstaffbirmingham.co.uk/"
"Marstonpubs","51.129036","-2.736538","","Bear Inn","High Street, Street, Somerset, BA16 0EF","01458 442021","BearInn.Street@marstons.co.uk","https://www.bearinnpubstreet.co.uk/"
"Marstonpubs","51.5842","-4.059117","","Beaufort Arms","18 Pennard Road, 108015, Gower, SA3 3JG","01792 234447","BeaufortArms.Gower@phoenixpub.co.uk","https://sabrainpubs.com/pubs-and-hotels/south-wales/swansea/beaufort-arms"
"Marstonpubs","52.91728","-1.497209","","Bedford Arms","2 Bedford Street, Derby, Derbyshire, DE22 3PB","01332 343065","bedfordarms.derby@phoenixpub.co.uk",""
"Marstonpubs","52.673744","-2.773879","","Beeches","93 Lythwood Road, Bayston Hill, Shrewsbury, Shropshire, SY3 0NT","01743 384298","Beeches.Shrewsbury@phoenixpub.co.uk","https://www.beechespubbaystonhill.co.uk/"
"Marstonpubs","50.73052","-1.825483","","Bell","915 Christchurch Road, Bournemouth, Dorset, BH7 6AX","01202 097404","Bell.Pokesdown@phoenixpub.co.uk",""
"Marstonpubs","53.775066","-2.845577","","Bell & Bottle","Blackpool Road, Kirkham, Lancashire, PR4 3RJ","01772 684288","bellandbottle.kirkham@marstons.co.uk","https://www.bellbottlepubkirkham.co.uk/"
"Marstonpubs","52.670097","-2.309749","","Bell Inn","Tong, Shifnal, Shropshire, TF11 8PS","01952 850210","bell.tong@marstons.co.uk","https://www.bellpubshifnal.co.uk/"
"Marstonpubs","52.618305","-2.015377","","Bell Inn","Bell Lane, 1 Bell Lane, Bloxwich, Walsall, West Midlands, WS3 2NJ","","BellInn.Bloxwich@phoenixpub.co.uk",""
"Marstonpubs","52.82404","-1.687943","","Bell Inn","Anslow, Burton upon Trent, Staffordshire, DE13 9QD","01283812838","Bell.Anslow@phoenixpub.co.uk","https://www.thebellinnanslow.co.uk/"
"Marstonpubs","54.20841","-0.286658","","Belle Vue","Belle Vue Street, Filey, North Yorkshire, YO14 9LQ","01723 448257","bellevue.filey@phoenixpub.co.uk",""
"Marstonpubs","54.673046","-3.37819","","Belle Vue","Papcastle, Cockermouth, Cumbria, CA13 0NT","01900 821388","howard.speck@googlemail.com",""
"Marstonpubs","53.898792","-2.788173","","Bellflower","Parkside Lane, Preston, Lancs, Lancashire, PR3 0JA","01995 238207","Bellflower.Garstang@marstons.co.uk","https://www.bellflowerpubgarstang.co.uk/"
"Marstonpubs","55.00969","-1.57575","","Benton Ale House","Longbenton, Newcastle Upon Tyne, Tyne and Wear, NE7 7XE","01912661512","BentonAleHouse.Newcastle@phoenixpub.co.uk",""
"Marstonpubs","52.185677","-2.240139","","Berkeley Arms","4 School Road, Worcester, Worcestershire, WR2 4HF","01905421427","beverley.walton1@btinternet.com",""
"Marstonpubs","51.609905","-3.38394","","Bertie","Coedcae Road, Trehafod, Pontypridd, Rhonda, CF37 2NW","01443 688204","bertie.pontypridd@phoenixpub.co.uk","https://www.bertiepub.co.uk/"
"Marstonpubs","52.40705","-1.471745","","Biggin Hall","214 Binley Road, Stoke, Coventry, West Midlands, CV3 1HG","02476 442109","BigginHall.Coventry@phoenixpub.co.uk","https://www.bigginhallpub.co.uk/"
"Marstonpubs","51.5112","-3.200021","","Birchgrove Inn","1 - 3 Birchgrove Road, 104116, Cardiff, CF14 1RR","02920 311319","BirchgroveInn.Cardiff@marstons.co.uk","https://sabrainpubs.com/pubs-and-hotels/south-wales/cardiff/birchgrove"
"Marstonpubs","52.65466","-1.56354","","Bird In Hand","Austrey, Atherstone, Warwickshire, CV9 3EB","01827 830260","graham.john.griffiths@btinternet.com","http://www.birdinhandaustrey.co.uk/"
"Marstonpubs","53.09481","-1.124675","","Bird in Hand","Main Street, Blidworth, Nottinghamshire, NG21 0QH","01623 491268","birdinhand.blidworth@phoenixpub.co.uk","https://www.birdinhandblidworth.co.uk/"
"Marstonpubs","53.539578","-0.654289","","Bird in the Barley","Messingham, Scunthorpe, Lincolnshire, DN17 3SQ","01724 764744","birdinthebarley.messingham@virgin.net",""
"Marstonpubs","53.556995","-0.658899","","Black Beauty","Keddington Road, Bottesford Scunthorpe, Lincolnshire, DN17 2QU","01724 489321","blackbeauty.scunthorpe@phoenixpub.co.uk",""
"Marstonpubs","51.617744","-4.019787","","Black Boy","444 Gower Road, 106070, Swansea, SA2 7AJ","01792 299469","BlackBoy.Swansea@marstons.co.uk","https://sabrainpubs.com/pubs-and-hotels/south-wales/swansea/black-boy"
"Marstonpubs","53.154434","-1.193285","","Black Bull","Woodhouse Road, Mansfield, Nottinghamshire, NG18 2BQ","01623 624789","BlackBull.Mansfield@phoenixpub.co.uk","https://www.blackbullpubhotelmansfield.co.uk/"
"Marstonpubs","53.81755","-2.455281","","Black Bull Hotel","Old Langho Road, Old Langho, Blackburn, Lancashire, BB6 8AW","01254248801","rebecca@theblackbulloldlangho.co.uk",""
"Marstonpubs","53.586643","-2.663132","","Black Bull Hotel","Market Street, Standish, Wigan, Greater Manchester, WN6 0HW","01257 427161","BlackBull.Standish@phoenixpub.co.uk",""
"Marstonpubs","53.26015","-1.223738","","Black Diamond","172 Elmton Road, Creswell Worksop, Derbyshire, S80 4DY","01909808545","black.diamond.worksop@phoenixpub.co.uk",""
"Marstonpubs","52.913876","-0.643646","","Black Dog","19 Watergate, Grantham, Lincolnshire, NG31 6NS","01476 978507","black.dog.grantham@phoenixpub.co.uk","https://www.blackdogpubgrantham.co.uk/"
"Marstonpubs","52.610336","-1.518363","","Black Horse","Main Road, Sheepy Magna, Atherstone, Warwickshire, CV9 3QR","01827 880555","paulharris38@hotmail.co.uk","http://www.blackhorsesheepy.com/"
"Marstonpubs","51.71624","-1.970031","","Black Horse","Castle Street, Cirencester, Gloucestershire, GL7 1QD","01285 653187","BlackHorse.Cirencester@marstons.co.uk","https://www.blackhorsepubcirencester.co.uk/"
"Marstonpubs","52.5457","-1.372684","","Black Horse Inn","Upper Bond Street, Hinckley, Leicestershire, LE10 1RJ","01455 612541","BlackHorse.Hinckley@phoenixpub.co.uk",""
"Marstonpubs","54.28331","-0.401375","","Black Lion","North Street, Scarborough, North Yorkshire, YO11 1DF","01723 363717","BlackLion.Scarborough@phoenixpub.co.uk",""
"Marstonpubs","53.168297","-3.08352","","Black Lion","Mold Road, Buckley, Clwyd, CH7 2JA","01244630118","black.lion.buckley@phoenixpub.co.uk",""
"Marstonpubs","51.493454","-3.219373","","Black Lion Hotel","49 Cardiff Road, 105231, Cardiff, CF5 2DQ","02920 567312","BlackLionHotel.Llandaff@phoenixpub.co.uk","https://sabrainpubs.com/pubs-and-hotels/south-wales/cardiff/black-lion-llandaff"
"Marstonpubs","53.91227","-0.297874","","Black Swan","Brandesburton, Driffield, East Yorkshire, YO25 8RG","01964 542376","BlackSwan.Brandesburton@phoenixpub.co.uk",""
"Marstonpubs","52.21438","-2.198288","","Blackpole Inn","Blackpole Road, Worcester, Worcestershire, WR3 8SQ","01905 451180","Blackpole.Worcester@phoenixpub.co.uk","https://www.blackpoleinnpub.co.uk/"
"Marstonpubs","52.741596","-1.171879","","Blacksmiths Arms","Meeting Street, Quorn, Loughborough, LE12 8EU","01509 767748","antonio@theroyaloakquorn.co.uk","https://blacksmithsarmsquorn.co.uk/"
"Marstonpubs","53.902374","-1.091008","","Blacksmiths Arms","Main Street, Naburn York, Yorkshire, YO19 4PN","01904623464","christiangarvey@yahoo.com","https://blacksmithsarmsnaburn.com/"
"Marstonpubs","53.010586","-1.975904","","Blacksmiths Arms","39 Shawe Park Road, Kingsley Holt, Stoke on Trent, Staffordshire, ST10 2DJ","01538528847","Blacksmiths.Stoke@phoenixpub.co.uk",""
"Marstonpubs","53.83649","-0.76764","","Blacksmiths Arms","79 High Street, Holme-on-Spalding Moor,  Hull, East Yorkshire, YO43 4AA","01430860668","hclose@live.co.uk","https://www.theblacksmitharms.com/"
"Marstonpubs","52.566845","-1.344558","","Blacksmiths Arms","1 Chapel Street, Top Town, Barwell, Leicestershire, LE9 8DD","01455698485","blacksmiths.barwell@phoenixpub.co.uk",""
"Marstonpubs","53.634796","-1.668191","","Blacksmiths Arms","Grangemoor, Grangemoor Nr Wakefield, West Yorkshire, WF4 4DS","01924848531","blacksmiths.grangemoor@marstons.co.uk","https://www.blacksmithsarmspub.co.uk/"
"Marstonpubs","51.49283","-3.188833","","Blackweir Tavern","North Road, 104027, Cardiff, CF10 3DX","02920 341405","BlackweirTavern.Cardiff@phoenixpub.co.uk","https://www.blackweirtavernpub.co.uk/"
"Marstonpubs","51.559464","-2.988503","","Blaina Wharf","East Dock Road, Newport, NP20 2FR","01633 262679","BlainaWharf.Newport@marstons.co.uk","https://www.blainawharfpubnewport.co.uk/"
"Marstonpubs","52.884644","-1.600409","","Blenheim Inn","Main Street, Etwall, Derbyshire, DE65 6LP","01283 329139","Blenheim.Etwall@phoenixpub.co.uk",""
"Marstonpubs","51.639103","-3.041763","","Blinkin Owl","Henllys Way, 101104, Oxtens Cwmbran, NP44 4TP","01633 484749","BlinkinOwl.CoedEva@phoenixpub.co.uk","http://www.blinkinowlcwmbrantorfaen.co.uk/"
"Marstonpubs","55.172684","-1.577254","","Block & Tackle","Blackthorne Way, Ashington, Northumberland, NE63 8NW","01670 819845","BlockAndTackle.Ashington@phoenixpub.co.uk","https://www.blocktacklepub.co.uk/"
"Marstonpubs","53.168068","-3.089707","","Blue Anchor","153 Mold Road, Buckley, Flintshire, CH7 2NH","01244 550585","BlueAnchor.Buckley@phoenixpub.co.uk",""
"Marstonpubs","52.146744","-2.240791","","Blue Bell","35 Upton Road, Callow End, Worcester, Worcestershire, WR2 4TY","01905 830261","BlueBell.Worcester@phoenixpub.co.uk",""
"Marstonpubs","53.781296","-0.421155","","Blue Bell","West Green, Cottingham, East Yorkshire, HU16 4BH","01482847113","BlueBellCottingham@outlook.com","https://bluebellcottingham.co.uk/"
"Marstonpubs","52.19477","-1.805891","","Blue Boar","Temple Grafton, Alcester, Warwickshire, B49 6NR","01789 750010","info@theblueboar.co.uk","https://www.theblueboar.co.uk/"
"Marstonpubs","52.90159","-1.425313","","Blue Jay","Linville Close, Derby, Derbyshire, DE21 7HX","01332 751267","bluejay.derby@marstons.co.uk","https://www.bluejaypubderby.co.uk/"
"Marstonpubs","52.7076","-2.46372","","Blue Pig","Capwell Road, Trench, Telford, Shropshire, TF2 6QQ","01952 877852","BluePig.Telford@phoenixpub.co.uk",""
"Marstonpubs","52.392803","-2.244628","","Bluebell","423 Hurcott Road, Kidderminster, Worcestershire, DY10 2QQ","01562 227826","tracy.harris79.th@gmail.com",""
"Marstonpubs","52.106274","-2.30102","","Bluebell Inn","Barnards Green, Malvern, Worcestershire, WR14 3QP","01684575031","bluebell.malvern@marstons.co.uk","https://www.bluebellinnpub.co.uk/"
"Marstonpubs","53.508823","-1.350296","","BlueBell Inn","Manvers Way, Wath upon dearne Rotherham, South Yorkshire, S63 7EQ","01709 877664","BlueBellInn.Rotherham@marstons.co.uk","https://www.bluebellinnpubrotherham.co.uk/"
"Marstonpubs","52.386265","-2.246075","","Boars Head","39 Worcester Street, Kidderminster, Worcestershire, DY10 1EW","01562228065","BoarsHead.Kidderminister@phoenixpub.co.uk",""
"Marstonpubs","52.703194","-2.746","","Boars Head","Belle Vue Road, Shrewsbury, Shropshire, SY3 7LL","01743 369722","BoarsHead.Shrewsbury@phoenixpub.co.uk",""
"Marstonpubs","53.11427","-3.312249","","Boars Head","4 Clwyd Street, Ruthin, Flintshire, LL15 1HW","01824 703355","BoarsHead.Ruthin@phoenixpub.co.uk",""
"Marstonpubs","53.573414","-2.644607","","Boars Head Hotel","Wigan Road, Standish, Wigan, Lancashire, WN6 0AD","01942735089","boarshead@btinternet.com","http://www.boarsheadstandish.com/"
"Marstonpubs","52.292748","-2.087251","","Boat & Railway","Shaw Lane, Bromsgrove, Worcestershire, B60 4EQ","01527 575597","BoatandRailway.Bromsgrove@phoenixpub.co.uk","http://www.boatandrailwaypubbromsgrove.co.uk/"
"Marstonpubs","52.28986","-1.21931","","Boat House","London Road, Daventry, Northamptonshire, NN11 7HB","01788 891734","Boathouse.Braunston@marstons.co.uk","https://www.boathousepub.co.uk/"
"Marstonpubs","52.77927","-2.263411","","Boat Inn","Wharf Road, Gnosall, Stafford, Staffordshire, ST20 0DA","01785 822208","suepage01@hotmail.com","https://www.boatinngnosall.com/"
"Marstonpubs","53.06379","-2.034534","","Boat Inn","Basford Bridge, Leek, Staffordshire, ST13 7EQ","01538 360521","BoatInn.Leek@phoenixpub.co.uk","https://boat-inn.business.site/"
"Marstonpubs","52.775978","-1.202476","","Boat Inn","Meadow Lane, Loughborough, Leicestershire, LE11 1JY","01509 261565","Boat.Loughborough@phoenixpub.co.uk","https://www.boatinnpubloughborough.co.uk/"
"Marstonpubs","53.735783","-1.722304","","Bobbin Carrier","Centurion Way, Bradford, West Yorkshire, BD19 3QE","01274 877632","BobbinCarrier.Cleckheaton@marstons.co.uk","https://www.bobbincarrierpubcleckheaton.co.uk/"
"Marstonpubs","53.686775","-2.672518","","Bobbin Mill","Buckshaw Village, Chorley, Lancashire, PR7 7NA","01772458160","BobbinMill.Chorley@Marstons.co.uk","https://www.bobbinmillpub.co.uk/"
"Marstonpubs","53.263382","-4.092494","","Bold Arms","6 Church Street, Beaumaris, Anglesey, Gwynedd, LL58 8AA","01248810313","hannahlouise.baguley@gmail.com",""
"Marstonpubs","53.529373","-2.643817","","Bold Hotel","161 Poolstock Lane, Worsley Mesnes, Wigan, Lancashire, WN3 5HL","01942 241095","keys.robert@yahoo.com",""
"Marstonpubs","53.742344","-0.334788","","Bonny Boat","Trinity House Lane, Hull, Humberside, HU1 2JA","01482224961","carla@thebonnyboat.karoo.co.uk",""
"Marstonpubs","53.194496","-1.391623","","Boot & Shoe","North Wingfield Road, Grassmoor, Chesterfield, Derbyshire, S42 5EU","01246 767209","BootandShoe.Grassmoor@phoenixpub.co.uk",""
"Marstonpubs","53.075264","-1.399723","","Boot & Slipper","The Green, Swanwick, Alfreton, Derbyshire, DE55 1BL","01773 608607","BootandSlipper.Swanick@phoenixpub.co.uk",""
"Marstonpubs","50.606373","-2.459517","","Boot Inn","High West South, Weymouth, Dorset, DT4 8JH","01305 774851","BootInn.Weymouth@phoenixpub.co.uk",""
"Marstonpubs","53.495224","-2.923627","","Bootle Arms","Rock Lane, Melling, Merseyside, L31 1EN","0151 5262886","bootlearms.maghull@marstons.co.uk","https://www.bootlearmspub.co.uk/"
"Marstonpubs","53.56087","-0.0309","","Bootlegger","30 - 34 High Street, Cleethorpes, Lincolnshire, DN35 8JN","01472 291509","accounts@unitybarsandclubs.co.uk",""
"Marstonpubs","53.389683","-2.587876","","Borough Arms","120 Buttermarket Street, Warrington, Cheshire, WA1 2NZ","01925 571252","borougharms@sky.com",""
"Marstonpubs","53.09626","-1.340128","","Boundary","Lea Vale, Broadmeadows, South Normanton, Derbyshire, DE55 3NA","01773 582840","Boundary.Alfreton@marstons.co.uk","https://www.boundarypub.co.uk/"
"Marstonpubs","53.509083","-2.423257","","Boundary Stone","Worsley, Manchester, Greater Manchester, M28 1AD","0161 703 8480","boundarystone.manchester@marstons.co.uk","https://www.boundarystonepub.co.uk/"
"Marstonpubs","53.753307","-0.359958","","Bowery","30-32 Princes Avenue, Hull, East Yorkshire, HU5 3QA","01482 441126","Bowery.Hull@phoenixpub.co.uk","https://www.oweryhull.co.uk/"
"Marstonpubs","53.146183","-1.194815","","Bowl in Hand","Leeming Street, Mansfield, Nottinghamshire, NG18 1NB","01623 391860","BowlinHand.Mansfield@phoenixpub.co.uk",""
"Marstonpubs","52.288635","-2.093503","","Bowling Green Inn","Shaw Lane, Bromsgrove, Worcestershire, B60 4BH","01527 861291","z3andz4@aol.com",""
"Marstonpubs","52.794224","-2.991695","","Bradford Arms","Knockin, Oswestry, Shropshire, SY10 8HJ","01691 682358","bradfordarms@phoenixpub.co.uk","https://www.bradfordarmsoswestry.co.uk/"
"Marstonpubs","52.69412","-1.178015","","Bradgate Arms","Cropston, Cropston Leicestershire, Leicestershire, LE7 7HG","0116 2366276","Bradgate.Leicester@phoenixpub.co.uk","https://www.bradgatearmscropstonleicestershire.co.uk/"
"Marstonpubs","52.132828","-0.989205","","Brave Old Oak","Watling Street, Towcester, Northamptonshire, NN12 6BT","01327 353621","braveoldoak.towcester@phoenixpub.co.uk","https://www.braveoldoaktowcester.co.uk/"
"Marstonpubs","52.03677","-2.426186","","Brewery Inn","Bye Street, Ledbury, Hereford, Herefordshire, HR8 2AG","01531 248739","Brewery.Ledbury@phoenixpub.co.uk",""
"Marstonpubs","53.01668","-1.733109","","Bridge","33-35  Dig Street, Ashbourne, Derbyshire, DE6 1GF","01335 418751","Bridge.Ashbourne@phoenixpub.co.uk",""
"Marstonpubs","52.987938","-2.509799","","Bridge Inn","Audlem, Crewe, Cheshire, CW3 0DX","01270812928","Bridge.Audlem@phoenixpub.co.uk","https://www.bridgepubcrewe.co.uk/"
"Marstonpubs","52.78835","-1.677789","","Bridge Inn","Tatenhill Lane, Branston, Burton upon Trent, Staffordshire, DE14 3EZ","01283 564177","Thebridgeinnbranston@hotmail.com","https://thebridgeinnbranston.com/"
"Marstonpubs","54.381577","-1.929499","","Bridge Inn","Nr Reeth, Grinton, North Yorkshire, DL11 6HH","01748 884224","atkinbridge@btinternet.com",""
"Marstonpubs","53.627914","-2.216551","","Bridge Inn","743 Edenfield Road, Norden, Rochdale, Greater Manchester, OL11 5TT","01706550619","bridgeinn.rochdale@phoenixpub.co.uk",""
"Marstonpubs","52.6772","-2.177855","","Bridge Inn","22 High Green, Brewood, Staffordshire, ST19 9BD","01902903966","Bridge.Brewood@phoenixpub.co.uk","https://thebridgeinnatbrewood.co.uk/"
"Marstonpubs","52.9862","-1.476449","","Bridge Inn","Duffield Bank, Duffield, Derbyshire, DE56 4BG","01332 842959","bridge.belper@marstons.co.uk","https://www.bridgeinnpub.co.uk/"
"Marstonpubs","53.22332","-4.164335","","Bridge Inn","Telford Road, Menai Bridge, Anglesey, Gwynedd, LL59 5DT","01248 716888","BridgeInn.MenaiBridge@phoenixpub.co.uk",""
"Marstonpubs","53.674446","-1.489349","","Bridge Inn","Bridge Street, Wakefield, West Yorkshire, WF1 5RT","01924 379079","BridgeInn.Wakefield@marstons.co.uk","https://www.bridgeinnwakefield.co.uk/"
"Marstonpubs","53.144043","-1.192328","","Bridge Tavern","Bridge Street, Mansfield, Nottinghamshire, NG18 1AL","01623371463","BridgeTavern.Mansfield@phoenixpub.co.uk",""
"Marstonpubs","53.559044","-2.324408","","Bridge Tavern","6 - 8 Blackburn Street, Radcliffe, Manchester, Greater Manchester, M26 1WW","0161 4251252","bridge.tavern@phoenixpub.co.uk",""
"Marstonpubs","52.47784","-2.111411","","Brierley Hop House","The Waterfront, Level Street, Brierley Hill, West Midlands, DY5 1XD","01384483522","BrierleyHopHouse.BrierleyHill@phoenixpub.co.uk","https://www.brierleyhophouse.co.uk/"
"Marstonpubs","52.34789","-2.283825","","Brinton Arms","75 Bewdley Road, Stourport, Worcestershire, DY13 8XX","01299 822723","brintonarms.stourport@marstons.co.uk","https://www.brintonarmspub.co.uk/"
"Marstonpubs","52.648045","-2.451619","","Britannia Inn","Aqueduct Road, Madeley, Telford, Shropshire, TF3 1BX","01952 591488","BritanniaInn.Madeley@phoenixpub.co.uk",""
"Marstonpubs","52.505436","-2.165634","","British Oak","55 Stallings Lane, Kingswinford, West Midlands, DY6 7HS","01384 287208","britishoak.kingswinford@marstons.co.uk","https://www.britishoakpubkingswinford.co.uk/"
"Marstonpubs","53.478165","-2.054129","","British Protection","Hough Hill Road, Stalybridge, Greater Manchester, SK15 2HB","0161 3385 432","BritishProtection.Stalybridge@phoenixpub.co.uk",""
"Marstonpubs","52.278824","-1.987188","","Brook Inn","Elcocks Brooke, Redditch, Worcestershire, B97 5UD","01527 543209","joshua_giles@aol.co.uk","https://thebrook.pub/"
"Marstonpubs","53.111965","-2.292332","","Broughton Arms","Rode Heath, Stoke on Trent, Cheshire, ST7 3RU","01270 883203","broughtonarms.rodeheath@marstons.co.uk","https://www.broughtonarmspub.co.uk/"
"Marstonpubs","53.73602","-2.731003","","Brown Hare","Millbrook Way, Preston, Lancashire, PR1 0XW","01772750138","BrownHare.Penwortham@marstons.co.uk","https://www.brownharepubpenwortham.co.uk/"
"Marstonpubs","52.5148","-3.316225","","Buck Inn","High Street, Newtown, Powys, SY16 2NP","01686 941325","Buck.Newton@phoenixpub.co.uk",""
"Marstonpubs","52.537956","-2.808156","","Bucks Head","42 High Street, Church Stretton, Shropshire, SY6 6BX","01694 328238","BucksHead.ChurchStretton@phoenixpub.co.uk","https://www.bucksheadhotel.co.uk/"
"Marstonpubs","53.830345","-1.428231","","Buffers","Rakehill Road, Scholes, Leeds, West Yorkshire, LS15 4AL","0113 2737324","Buffers.Scholes@phoenixpub.co.uk","https://www.buffersscholes.com/"
"Marstonpubs","53.301716","-2.365773","","Builders Arms","Mobberley Road, Knutsford, Cheshire, WA16 8EQ","01565228027","BuildersArms.Knutsford@phoenixpub.co.uk",""
"Marstonpubs","52.630398","-2.200787","","Bull","Codsall, Wolverhampton, Staffordshire, WV8 1PU","01902 842084","bull.codsall@marstons.co.uk","https://www.bullhotelpub.co.uk/"
"Marstonpubs","50.468544","-3.539807","","Bull & Bush","43 Belgrave Road, Torquay, Devon, TQ2 5HZ","01803380249","BullAndBush.Torquay@phoenixpub.co.uk","https://www.bullbushpub.co.uk/"
"Marstonpubs","53.070877","-1.316785","","Bull & Butcher","8 Alfreton Road, Selston, Nottinghamshire, NG16 6DJ","01773 812657","bullandbutcher.selston@phoenixpub.co.uk",""
"Marstonpubs","52.728508","-1.466657","","Bull & Lion","Packington, NR Ashby de la Zouch, Leicestershire, LE65 1WH","01530 415257","BullandLion.Packington@phoenixpub.co.uk","https://www.thebullandlion.com/"
"Marstonpubs","53.208527","-0.114601","","Bull Hotel","Bull Ring, Horncastle, Lincolnshire, LN9 5HU","01507523331","BullHotel.Horncastle@phoenixpub.co.uk","http://www.thebullhotel.org.uk/"
"Marstonpubs","52.36855","-2.717875","","Bull Hotel","14 The Bullring, Ludlow, Shropshire, SY8 1AD","01584 879339","BullHotel.Ludlow@phoenixpub.co.uk","https://www.bullhotelludlow.co.uk/"
"Marstonpubs","50.993168","-1.757932","","Bull Hotel","The Headlands, Downton, Sailsbury, Wiltshire, SP5 3HL","01725510374","BullHotel.Downton@phoenixpub.co.uk","https://www.thebulldownton.co.uk/"
"Marstonpubs","52.969852","-3.170574","","Bull Inn","20 Castle Street, Llangollen, Denbighshire, LL20 8NU","01978 862701","BullInn.Llangollen@phoenixpub.co.uk",""
"Marstonpubs","52.708138","-2.753041","","Bull Inn","Butcher Row, Shrewsbury, Shropshire, SY1 1UW","01743344728","christophergwolstenholme@gmail.com","https://www.bullinnshrewsbury.com/"
"Marstonpubs","51.520836","-1.148049","","Bull Inn","Streatley, Reading, Berkshire, RG8 9JJ","01491872392","BullInn.Streatley@phoenixpub.co.uk","https://www.bullinnpub.co.uk/"
"Marstonpubs","52.421215","-2.232625","","Bulls Head","Cookley, Kidderminster, Worcestershire, DY10 3SA","01562 243468","bullshead.kidderminster@phoenixpub.co.uk",""
"Marstonpubs","52.710815","-2.750437","","Bulls Head","Castle Gates, Shrewsbury, Shropshire, SY1 2AD","01743 588773","BullsHead.Shrewsbury@phoenixpub.co.uk",""
"Marstonpubs","52.268642","-1.779338","","Bulls Head","Stratford Road, Wootton Wawen, Henley-In-Arden, Warwickshire, B95 6BD","01564795803","martin@thebullshead.pub","https://www.thebullshead.pub/"
"Marstonpubs","52.48746","-1.368933","","Bulls Head","Church Hill, Wolvey, Warwickshire, LE10 3LB","01455 221100","bullshead.wolvey@phoenixpub.co.uk","https://www.bullsheadwolvey.co.uk/"
"Marstonpubs","52.6128","-1.685207","","Bulls Head","Two Gates, Tamworth, Staffordshire, B77 1HW","01827259222","nickygoldingay@outlook.com",""
"Marstonpubs","53.175125","-1.686332","","Bulls Head","Youlgreave, Youlgrave, Bakewell, DE45 1UR","01629636307","bullsheadyoulgrave@gmail.com","https://www.thebullsheadyoulgrave.co.uk/"
"Marstonpubs","52.874493","-1.80442","","Bulls Head","Marchington, Uttoxeter, Staffordshire, ST14 8LB","01283 820700","BullsHead.Marchington@phoenixpub.co.uk",""
"Marstonpubs","53.476368","-2.231688","","Bulls Head","84 London Road, Manchester, Greater Manchester, M1 2PN","0161 2361724","rogerparker6@gmail.com","http://thebullsheadpiccadilly.co.uk/"
"Marstonpubs","52.898052","-1.312934","","Bulls Head","Wilsthorpe Road, Breaston, Derbyshire, DE72 3EA","01332 872118","bullshead.breaston@marstons.co.uk","https://www.bullsheadpubbreaston.co.uk/"
"Marstonpubs","52.407105","-1.930498","","Bulls Head","77 The Green,  Kings Norton, West Midlands, B38 8RU","01214862810","BullsHead.KingsNorton@phoenixpub.co.uk","https://www.bullsheadpub.co.uk/"
"Marstonpubs","52.684586","-1.28287","","Bulls Head Inn","23 Forest Road, Markfield, Leicestershire, LE67 9UN","01530 610522","BullsHead.Markfield@phoenixpub.co.uk",""
"Marstonpubs","51.661495","-3.191064","","Bumble Bee","Sirhowy Enterprise Way, Gwent, Blackwood, NP12 2FS","01495 227319","bumblebee.blackwood@marstons.co.uk","https://www.bumblebeepub.co.uk/"
"Marstonpubs","51.91032","-1.155533","","Bure Farm","Bure Park, Bicester, Oxfordshire, OX26  3HA","01869 327578","burefarm.bicester@marstons.co.uk","https://www.burefarmpub.co.uk/"
"Marstonpubs","54.8348","-1.465539","","Burn Inn","Hetton Road, Houghton Le Spring, Tyne and Wear, DH5 8JN","01915 842130","burninn.houghtonlespring@phoenixpub.co.uk","https://www.burninnpubhoughton.co.uk/"
"Marstonpubs","52.01449","-0.783575","","Burnt Oak","Shenley Brook End, Milton Keynes, Buckinghamshire, MK5 7HH","01908521968","burntoak.miltonkeynes@phoenixpub.co.uk","https://www.burntoakpub.co.uk/"
"Marstonpubs","53.048683","-1.132845","","Burnt Stump","Arnold, Nottingham, Nottinghamshire, NG5 8PQ","0115 9631508","burntstump.nottingham@marstons.co.uk","https://www.burntstumppub.co.uk/"
"Marstonpubs","52.50308","-2.074749","","Bush Inn","Dixons Green, Dudley, West Midlands, DY2 8ED","01384 253753","andypricewolves@gmail.com",""
"Marstonpubs","54.663345","-3.366497","","Bush Inn","Main Street, Cockermouth, Cumbria, CA13 9JS","01900 822064","Bush.Cockermouth@phoenixpub.co.uk","https://www.bushinncockermouth.co.uk/"
"Marstonpubs","54.85588","-1.573331","","Butchers Arms","Middle Chare, Chester Le Street, County Durham, DH3 3QD","0191 3883605","butchersarms.cls@yahoo.com",""
"Marstonpubs","50.7152","-1.985072","","Butler & Hops","88 High Street, Poole, Dorset, BH15 1DB","01202 662931","ButlerandHops.Poole@phoenixpub.co.uk","https://www.butlerhopspoole.co.uk/"
"Marstonpubs","51.63151","-0.753085","","Butlers","21-31 Frogmoor, High Wycombe, Buckinghamshire, HP13 5DQ","01494558188","Butlers.HighWycombe@phoenixpub.co.uk","https://www.butlershighwycombe.co.uk/"
"Marstonpubs","53.68421","-1.499072","","Calder and Hops","60 Northgate, Wakefield, West Yorkshire, WF1 3AP","01924 299627","CalderandHops.Wakefield@phoenixpub.co.uk","https://www.alderhopswakefield.co.uk/"
"Marstonpubs","51.477665","-3.177094","","Cambrian Tap","51 St Mary Street, 102345, Cardiff, CF10 1AD","02920 644952","CambrianTap.Cardiff@phoenixpub.co.uk","https://sabrainpubs.com/pubs-and-hotels/south-wales/cardiff/cambrian-tap"
"Marstonpubs","53.402718","-2.967197","","Cambridge Hotel","Mulberry Street, Liverpool, Merseyside, L7 7EE","01517087150","Cambridge.Liverpool@phoenixpub.co.uk",""
"Marstonpubs","56.472744","-3.054867","","Camperdown Elm","1A Fulton Road, Dundee, DD2 4SW","01382 250870","CamperdownElm.Dundee@marstons.co.uk","https://www.camperdownelmpub.co.uk/"
"Marstonpubs","51.359592","1.396643","","Canterbury Bell","481 Margate Road, Thanet, Kent, CT10 2QD","01843 863892","CanterburyBell.Thanet@marstons.co.uk","https://www.canterburybellpubthanet.co.uk/"
"Marstonpubs","51.846653","-4.310393","","Caraway","Parc Pensarn, Carmarthen, SA31 2NG","01267243303","Caraway.Carmarthen@marstons.co.uk","https://www.carawaypubcarmarthen.co.uk/"
"Marstonpubs","53.955856","-1.116454","","Carlton Tavern","140 Acomb Road, York, North Yorkshire, YO24 4HA","01904781181","carltontavern.york@phoenixpub.co.uk","https://www.carltonpubyork.co.uk/"
"Marstonpubs","53.2434","-2.669125","","Carriers Inn","Delamere Road, Hatchmere, Norley, Cheshire, WA6 6NL","01928 371109","Carriers.Norley@phoenixpub.co.uk","https://thecarriersinn.co.uk/"
"Marstonpubs","53.548897","-2.08279","","Carrion Crow","271 Huddersfield Road, Oldham, Greater Manchester, OL4 2RJ","0161 6334490","CarrionCrow.Oldham@phoenixpub.co.uk",""
"Marstonpubs","53.418537","-2.289889","","Carters Arms","Sale, Manchester, Greater Manchester, M33 2PG","01614784485","CarterArms.Manchester@phoenixpub.co.uk",""
"Marstonpubs","51.77401","-5.106801","","Castle Hotel","Little Haven, Haverfordwest, Pembrokeshire, SA62 3UG","01437 781445","David_lewis93@live.co.uk",""
"Marstonpubs","52.60637","-2.080344","","Castle Inn","Wednesfield, Wolverhampton, West Midlands, WV11 1NW","01902219993","castle.wolverhampton@phoenixpub.co.uk","https://www.castleinnwolverhampton.co.uk/"
"Marstonpubs","52.77016","-1.571399","","Catchems","Hearthcote Road, Swadlincote, Derbyshire, DE11 9DU","01283 217654","Catchems.Swadlincote@marstons.co.uk","https://www.catchemsswadlincote.co.uk/"
"Marstonpubs","52.97499","-2.092139","","Catchems Corner","1161 Uttoxeter Road, Meir, Stoke on Trent, Staffordshire, ST3 6HH","01782 499172","CatchemsCorner.Stoke@phoenixpub.co.uk",""
"Marstonpubs","53.105835","-2.017899","","Cattle Market","Fountain Street, Leek, Staffordshire, ST13 6JR","01538528198","CattleMarket.Leek@phoenixpub.co.uk","https://www.cattlemarketleek.co.uk/"
"Marstonpubs","54.679997","-1.213064","","Causeway","Stranton, Hartlepool, County Durham, TS24 7QT","01429 263000","Causeway.Hartlepool@phoenixpub.co.uk",""
"Marstonpubs","53.229614","-1.291612","","Cavendish","Market Place, Bolsover, Derbyshire, S44 6PH","01246768813","CavendishHotel.Chesterfield@phoenixpub.co.uk","https://www.cavendishhotelchesterfield.co.uk/"
"Marstonpubs","53.712948","-2.610103","","Cavendish Arms","Sandy Lane, Brindle, Chorley, Lancashire, PR6 8NG","01254852912","nick@wartonfoods.co.uk","http://thecavendisharms.com/"
"Marstonpubs","52.759422","-1.883827","","Chadwick Arms","Uttoxeter Road, Hill Ridware, Rugeley, Staffordshire, WS15 3QX","01543 490552","seftonleisure@yahoo.com",""
"Marstonpubs","52.969196","-0.071438","","Chain Bridge","Swineshead Road, Boston, Lincolnshire, PE21 7JE","01205205051","ChainBridge.Boston@marstons.co.uk","https://www.chainbridgepubboston.com/"
"Marstonpubs","55.88274","-3.519424","","Chain Runner","Almondvale Way, Livingston, EH54 6GA","01506 243991","ChainRunner.Livingston@marstons.co.uk","https://www.chainrunnerpublivingston.co.uk/"
"Marstonpubs","51.21029","-1.519349","","Chalkhill Blue","Hawker Siddley Way, Andover, Hampshire, SP11 8BF","01264 356023","ChalkhillBlue.Andover@marstons.co.uk","https://www.chalkhillbluepubandover.co.uk/"
"Marstonpubs","50.965443","-1.354321","","Chamberlayne","105 High Street, Eastleigh, Hampshire, SO50 5LS","02380612067","Chamberlayne.Eastleigh@phoenixpub.co.uk","https://www.chamberlayneeastleighpub.co.uk/"
"Marstonpubs","55.002033","-1.71173","","Chapel Park Hotel","Hartburn Drive, Newcastle Upon Tyne, Tyne and Wear, NE5 1TE","01912676887","davidstatham34@gmail.com",""
"Marstonpubs","50.797527","-0.665833","","Charlie Purley","Shripney Road, Bognor Regis, West Sussex, PO22 9FL","01243200440","CharliePurley.Bognor@marstons.co.uk","https://www.thecharliepurleypubbognor.co.uk/"
"Marstonpubs","52.76053","-1.946521","","Chase","Hagley Road, Rugeley, Staffordshire, WS15 2AW","01889 582504","chase.rugeley@marstons.co.uk","https://www.chasepub.co.uk/"
"Marstonpubs","52.03747","-1.153676","","Chequered Flag","Lark Rise, Brackley, Northamptonshire, NN13 6JR","01280705706","chequeredflag.brackley@phoenixpub.co.uk","https://www.chequeredflagpub.co.uk/"
"Marstonpubs","52.484974","-1.256608","","Chequers Country Inn","Ullesthorpe, Lutterworth, Leicestershire, LE17 5BT","01455 208151","ChequersCountryInn.Lutterworth@phoenixpub.co.uk","https://www.chequerscountryinnlutterworth.co.uk/"
"Marstonpubs","54.466435","-1.542259","","Chequers Inn","Dalton On Tees, Darlington, Tyne & Wear, DL2 2NT","01325 721213","richard.hughes100@outlook.com","https://thechequersinndalton.co.uk/"
"Marstonpubs","53.56306","-2.630424","","Cherry Gardens","263 Wigan Lane, Wigan, Lancashire, WN1 2NT","","CherryGardens.Wigan@phoenixpub.co.uk",""
"Marstonpubs","51.498894","-3.549005","","Cherry Laurel","Kingsway, Bridgend, Bridgend, CF31 3RY","01656 360095","CherryLaurel.Bridgend@marstons.co.uk","https://www.cherrylaurelpubbridgend.co.uk/"
"Marstonpubs","51.40895","-3.277889","","Cherry Orchard","Barry Road, Barry, South Glamorgan, CF62 8EH","01446 700580","cherryorchard.barry@marstons.co.uk","https://www.cherryorchardpubbarry.co.uk/"
"Marstonpubs","54.89048","-1.551434","","Cherry Tree","Goldcrest Road, Ayton Village Washington, Tyne and Wear, NE38 0DL","01915 801515","CherryTree.Washington@phoenixpub.co.uk","https://www.cherrytreepubwashington.co.uk/"
"Marstonpubs","52.641125","1.236096","","Cherry Tree","Dereham Road, Norwich, Norfolk, NR5 8TD","01603749469","CherryTree.Norwich@phoenixpub.co.uk","https://www.cherrytreepubnorwich.co.uk/"
"Marstonpubs","53.40222","-2.217312","","Cheshire Line","Manchester Road, Manchester Road, Cheadle, Stockport, Greater Manchester, SK8 2NZ","01614283352","CheshireLine.Cheadle@phoenixpub.co.uk","https://www.cheshirelinetavern.co.uk/"
"Marstonpubs","52.56549","-2.00863","","Chestnut Tree","Axletree Way, Wednesbury, West Midlands, WS10 9QY","0121 5688574","ChestnutTree.Wednesbury@marstons.co.uk","https://www.chestnuttreepubwednesbury.co.uk/"
"Marstonpubs","52.76894","-2.056693","","Chetwynd Arms","Brocton, Stafford, Staffordshire, ST17 0ST","01785 661089","chetwyndarms.brocton@marstons.co.uk","https://www.chetwyndarmspub.co.uk/"
"Marstonpubs","53.394882","-2.880683","","Childwall Abbey Hotel","Childwall Abbey Road, Liverpool, Merseyside, L16 5EY","0151 7225293","childwallabbeyhotel.liverpool@marstons.co.uk","https://www.childwallabbeyhotelpub.co.uk/"
"Marstonpubs","53.29538","-2.725465","","Cholmondeley Arms","12 Church Street, Frodsham Nr Warrington, Cheshire, WA6 7EB","01928 733052","CholmondeleyArms.Frodsham@phoenixpub.co.uk",""
"Marstonpubs","50.468746","-3.529287","","Cinnabar","18-19 Victoria Parade, Torquay, Devon, TQ1 2BB","01803411778","Cinnabar.Torquay@phoenixpub.co.uk",""
"Marstonpubs","51.479874","-3.18089","","City Arms","Quay Street, 109431, Cardiff, CF10 1EA","02920 641913","CityArms.Cardiff@phoenixpub.co.uk","https://sabrainpubs.com/pubs-and-hotels/south-wales/cardiff/city-arms"
"Marstonpubs","51.716686","-1.58672","","Clanfield Tavern","Bampton Road, Clanfield, Oxfordshire, OX18 2RG","01367 810117","contact@clanfieldtavern.net","https://www.clanfieldtavern.net/"
"Marstonpubs","52.606323","-2.159626","","Claregate","Tettenhall, Wolverhampton, West Midlands, WV6 9ED","01902 754761","claregate.wolverhampton@marstons.co.uk","https://www.claregatepub.co.uk/"
"Marstonpubs","52.584984","-2.137291","","Clarendon","38 Chapel Ash, Wolverhampton, West Midlands, WV3 0TN","01902 420587","clarendon.wolverhampton@phoenixpub.co.uk","https://www.clarendonhotelpub.co.uk/"
"Marstonpubs","51.486923","-3.159176","","Clifton Hotel","Clifton Street, 102334, Cardiff, CF24 1PW","02920 307074","CliftonHotel.Roath@phoenixpub.co.uk","https://sabrainpubs.com/pubs-and-hotels/south-wales/cardiff/clifton"
"Marstonpubs","51.87216","-2.053272","","Clock Tower","Charlton Kings, Cheltenham, Gloucestershire, GL53 8EG","01242 571794","clocktower.cheltenham@marstons.co.uk","https://www.clocktowerpub.co.uk/"
"Marstonpubs","52.86739","-1.346442","","Clock Warehouse","Shardlow, Shardlow, Derbyshire, DE72 2GL","01332 650556","clockwarehouse.shardlow@marstons.co.uk","https://www.clockwarehousepub.co.uk/"
"Marstonpubs","51.76767","-3.772829","","Clock Works","Wind Road, Ystradgynlais, SA9 1AD","01792 721084","ClockWorks.Ystradgynlais@marstons.co.uk","https://www.theclockworkspubystradgynlais.co.uk/"
"Marstonpubs","52.71053","-2.223268","","Coach & Horses","Long Street, Wheaton Aston, Staffordshire, ST19 9NP","01785841048","CoachandHorses.WheatonAston@phoenixpub.co.uk",""
"Marstonpubs","52.2006","-2.225324","","Coach & Horses","39 Upper Tything, Worcester, Worcestershire, WR1 1JZ","0190522448","CoachandHorses.Worcester@phoenixpub.co.uk",""
"Marstonpubs","54.54571","-1.923436","","Coach & Horses","22 Galgate, Barnard Castle, County Durham, DL12 8BH","01833 908179","coachandhorses.countydurham@phoenixpub.co.uk",""
"Marstonpubs","52.671825","-1.185709","","Coach & Horses","The Nook, Anstey, Leicestershire, LE7 7AT","0116 236 5816","CoachAndHorses.Anstey@phoenixpub.co.uk",""
"Marstonpubs","51.10749","-0.143128","","Coaching Halt","Balcombe Road, Crawley, West Sussex, RH10 7NN","01293 883558","CoachingHalt.Crawley@marstons.co.uk","https://www.coachinghaltpubcrawley.co.uk/"
"Marstonpubs","54.629738","-1.580362","","Cobblers Hall","Carers Way, Newton Aycliffe, County Durham, DL5 4SE","01325 315899","cobblershall.newtonaycliffe@marstons.co.uk","https://www.cobblershallpub.co.uk/"
"Marstonpubs","52.56838","0.061012","","Cobblestones","Wisbech Road, March, Cambridgeshire, PE15 0BA","01354650312","Cobblestones.March@marstons.co.uk","https://www.cobblestonespubmarch.co.uk/"
"Marstonpubs","52.450382","-2.015935","","Cobham Arms","Quinton, Halesowen, West Midlands, B62 0JD","0121 4224839","CobhamArms.Halesowen@phoenixpub.co.uk","https://www.cobhamarmshalesowen.co.uk/"
"Marstonpubs","52.37683","-2.31533","","Cock & Magpie","1 Severnside North, Bewdley, Worcestershire, DY12 2EE","01299 405842","CockandMagpie.Bewdley@phoenixpub.co.uk","https://www.thecockandmagpie.com/"
"Marstonpubs","54.958073","-1.515389","","Cock Crow Inn","Mill Lane, Hebburn, Tyne and Wear, NE31 2EY","0191 4285730","cockcrowinn.heburn@marstons.co.uk","https://www.cockcrowinnpub.co.uk/"
"Marstonpubs","52.260532","-0.900782","","Cock Inn","Harborough Road, Northampton, Northamptonshire, NN2 7AZ","01604713441","CockInn.Northampton@phoenixpub.co.uk","https://www.cockinnnorthampton.co.uk/"
"Marstonpubs","52.675667","1.22479","","Cock Inn","1 Drayton High Road, Norwich, Norfolk, NR8 6AE","01603 869598","cockinn.norwich@marstons.co.uk","https://www.cockinnpub.co.uk/"
"Marstonpubs","52.060078","-2.680026","","Cock of Tupsley","Tupsley, Hereford, Herefordshire, HR1 1UT","01432 274911","cockoftupsley.hereford@marstons.co.uk","https://www.cockoftupsleypub.co.uk/"
"Marstonpubs","51.629807","-3.985178","","Cockett Inn","Waunarlwydd Road, 107416, Swansea, SA2 0GB","01792447644","CockettInn.Swansea@phoenixpub.co.uk","https://www.cockettinnpub.co.uk/"
"Marstonpubs","53.68752","-1.501229","","College","138 Northgate, Wakefield, West Yorkshire, WF1 3QT","01924 374392","CollegeInn.Wakefield@phoenixpub.co.uk",""
"Marstonpubs","51.61473","-1.637372","","College Farm","Watchfield, Swindon, Oxfordshire, SN6 8TQ","01793 783170","collegefarm.watchfield@marstons.co.uk","https://www.collegefarmpub.co.uk/"
"Marstonpubs","52.535122","-1.442111","","Coniston Tavern","St.Nicholas Park Estate, Nuneaton, Warwickshire, CV11 6JT","02476 384405","Coniston.Nuneaton@phoenixpub.co.uk",""
"Marstonpubs","50.896328","0.621885","","Conquerors March","Stonestile Lane, Hastings, East Sussex, TN34 2RA","01424400676","ConquerorsMarch.Hastings@marstons.co.uk","http://www.conquerorsmarchpubhastings.co.uk/"
"Marstonpubs","53.79482","-0.191147","","Constable Arms","Sproatley, Hull, East Yorkshire, HU11 4PA","01482811087","ConstableArms.Hull@phoenixpub.co.uk",""
"Marstonpubs","53.17203","-1.178548","","Coopers","Leeming Lane North, Mansfield Woodhouse, Mansfield, NG19 9HR","01623 391809","Coopers.Mansfield@phoenixpub.co.uk","https://www.thecooperspubwoodhouse.co.uk/"
"Marstonpubs","51.46888","-3.26454","","Coopers Carvery","Cowbridge Road West, 106666, Cardiff, CF5 5TF","02920 311097","CulverhouseHotel.Cardiff@marstons.co.uk","http://www.cooperscarvery.co.uk/"
"Marstonpubs","53.133938","-1.027246","","Copper Beech","Kirklington Road, Bilsthorpe, Mansfield, Nottinghamshire, NG22 8SS","01623 305698","CopperBeach.Bilsthorpe@phoenixpub.co.uk","https://www.copperbeechpub.co.uk/"
"Marstonpubs","52.65369","1.180858","","Copper Beech","Alex Moorhouse Way, Norwich, Norfolk, NR5 0JT","01603 743489","copperbeech.norwich@marstons.co.uk","https://www.copperbeechpubnorwich.co.uk/"
"Marstonpubs","50.224655","-5.280215","","Copper Coast","Tolvaddon Road, Cornwall, Cornwall, TR14 0BJ","01209 240248","CopperCoast.Camborne@marstons.co.uk","https://www.coppercoastpubcamborne.co.uk/"
"Marstonpubs","53.469696","-2.849662","","Copper Pot","Coopers Lane, Knowsley, Merseyside, L33 7TT","01513 459594","copperpot.liverpool@marstons.co.uk","https://www.copperpotpub.co.uk/"
"Marstonpubs","52.57402","-1.220132","","Copt Oak","Narborough, Narborough  Leicestershire, Leicestershire, LE19 3LZ","0116 479 8567","CoptOak.Narborough@phoenixpub.co.uk","https://www.coptoaknarborough.co.uk/"
"Marstonpubs","52.706055","-1.287181","","Copt Oak","Whitwick Road, Markfield, Leicestershire, LE67 9QB","01530 242353","coptoak.markfield@marstons.co.uk","https://www.coptoakpubmarkfield.co.uk/"
"Marstonpubs","52.727455","-2.726291","","Coracle Inn","Sundorne Road, Shrewsbury, Shropshire, SY1 4RR","01743 272136","CoracleInn.Shrewsbury@phoenixpub.co.uk","https://www.coracleinnshrewsbury.co.uk/"
"Marstonpubs","51.743916","-1.20158","","Corner House","Headington, Oxford, Oxfordshire, OX3 7JF","01865604866","CornerHouse.Oxford@phoenixpub.co.uk",""
"Marstonpubs","52.495705","-1.433271","","Corner House","454 Nuneaton Road, Bedworth, Warwickshire, CV12 9SB","02476386159","cornerhouse.marstonjabbe@marstons.co.uk","https://www.cornerhousepubnuneaton.co.uk/"
"Marstonpubs","52.998917","-2.125238","","Corner Pin","1 Bambury Street, Longton, Stoke on Trent, Staffordshire, ST3 5DB","01782 499087","CornerPin.StokeOnTrent@phoenixpub.co.uk",""
"Marstonpubs","53.958626","-1.086661","","Corner Pin","Tanner Row, York, North Yorkshire, YO1 6JB","01904272809","CornerPin.York@phoenixpub.co.uk",""
"Marstonpubs","53.37009","-2.257411","","Cornishman","Cornishway, Manchester, Greater Manchester, M22 0JX","01614373391","Cornishman.Manchester@phoenixpub.co.uk",""
"Marstonpubs","54.546066","-1.25902","","Coronation Inn","Acklam, Middlesbrough, North Yorkshire, TS5 8AY","01642 817599","coronation.middlesborough@marstons.co.uk","https://www.coronationinnpub.co.uk/"
"Marstonpubs","53.015007","-2.232605","","Cotton Mill","Liverpool Road, Newcastle-Under-Lyme, Staffordshire, ST5 2AF","01782 454195","CottonMill.NewcastleUnderLyme@marstons.co.uk","https://www.cottonmillpubnewcastleunderlyme.co.uk/"
"Marstonpubs","51.751953","-1.260891","","Cow & Creek","12 New Road, Oxford, Oxfordshire, OX1 1LT","01865250099","theCowandCreek.Oxford@phoenixpub.co.uk","https://www.thecowandcreek.co.uk/"
"Marstonpubs","52.62164","-2.270601","","Cowshed","Holyhead Road, Boningale, Albrighton, Shropshire, WV7 3DA","01902372347","Cowshed.Boningale@phoenixpub.co.uk","https://www.hornsboningale-albrighton.co.uk/"
"Marstonpubs","53.204","-1.154177","","Crates & Grapes","29 High Street, Market Warsop, Nottinghamshire, NG20 0AB","01623 238911","CratesAndGrapes.Warsop@phoenixpub.co.uk",""
"Marstonpubs","52.853836","-1.455455","","Crewe & Harpur","Swarkestone, Swarkestone  Derby, Derbyshire, DE73 7JA","01332 700641","creweandharpur.swarkestone@marstons.co.uk","https://www.creweharpurpub.co.uk/"
"Marstonpubs","53.999394","-1.467443","","Cricketers","Thistle Hill, Forest Moor, Knaresborough, North Yorkshire, HG5 8JL","01423 862878","UnionHotel.Knaresborough@phoenixpub.co.uk",""
"Marstonpubs","54.54571","-1.923436","","Cricketers Arms","50 Galgate, Barnard Castle, County Durham, DL12 8BH","01833 908256","Cricketers.BarnardCastle@phoenixpub.co.uk","http://cricketersarmsbc.com/"
"Marstonpubs","53.585854","-1.790855","","Cricketers Arms","48 Deanhouse, Holmfirth, Huddersfield, West Yorkshire, HD9 3UG","01484 680121","psykes@gmx.co.uk",""
"Marstonpubs","50.897476","-1.373875","","Cricketers Arms","Portsmouth Road, Woolston, Hampshire, SO19 9AF","02380442245","Cricketers.Woolston@phoenixpub.co.uk","https://www.bridgepubwoolston.co.uk/"
"Marstonpubs","51.08588","-1.272108","","Cricketers Inn","Easton Lane, Easton, Winchester, Hampshire, SO21 1EJ","01962791044","Cricketers.Easton@phoenixpub.co.uk",""
"Marstonpubs","52.717415","-1.561108","","Cricketts Inn","Burton Road, Acresford, Derbyshire, DE12 8AP","01283 760359","CrickettsInn.Acresford@phoenixpub.co.uk","https://therealcrickettsinn.co.uk/"
"Marstonpubs","53.163696","-1.479528","","Crispin","Church Street, Ashover, Derbyshire, S45 0AB","01246 590911","Crispin.Ashover@phoenixpub.co.uk","https://thecrispininn.business.site/"
"Marstonpubs","52.3295","-0.181666","","Cromwell's Bar","137 High Street, Huntingdon, Cambridgeshire, PE29 3NF","01480 459000","CromwellsBarCafe.Huntingdon@phoenixpub.co.uk","https://www.cromwellsbarcafehuntingdon.co.uk/"
"Marstonpubs","53.061657","-2.50376","","Cronkinson's Farm","Stapeley, Nantwich, Cheshire, CW5 7GZ","01270 619765","CronkinsonsFarm.Nantwich@phoenixpub.co.uk","https://www.cronkinsonsfarmpub.co.uk/"
"Marstonpubs","53.76756","-0.290048","","Crooked Billet","2 Ings Road, Hull, East Yorkshire, HU8 0SA","01482 799241","crookedbillet.hull@phoenixpub.co.uk",""
"Marstonpubs","52.51513","-2.152442","","Crooked House","Himley, Dudley, Staffordshire, DY3 4DA","01384685330","CrookedHouse.Himley@phoenixpub.co.uk","https://thecrooked-house.co.uk/"
"Marstonpubs","52.448063","-2.139542","","Cross","Oldswinford, Glasshouse Hill, Stourbridge, West Midlands, DY8 1NJ","01384377586","Cross.Stourbridge@phoenixpub.co.uk",""
"Marstonpubs","52.97794","-2.963758","","Cross Foxes","Overton Bridge, Erbistock, Wrexham, Clwyd, LL13 0DR","01978 780380","cross.foxes@brunningandprice.co.uk","https://www.brunningandprice.co.uk/crossfoxes/"
"Marstonpubs","52.894455","-3.037298","","Cross Foxes","Gobowen, Oswestry, Shropshire, SY11 3JR","01691 587279","CrossFoxes.Oswestry@phoenixpub.co.uk",""
"Marstonpubs","53.331707","-3.400862","","Cross Foxes","1 Meliden Road, Prestatyn, Clwyd, LL19 9SB","01745 889477","crossfoxes.prestatyn@phoenixpub.co.uk",""
"Marstonpubs","51.508442","-3.132821","","Cross Inn","Newport Road, 101419, Cardiff, CF3 4AJ","02920 650021","CrossInn.Rumney@phoenixpub.co.uk","http://www.crossinnpubcardiff.co.uk/"
"Marstonpubs","53.269024","-3.79616","","Cross Keys","Llanrwyst Road, Glan Conway, Clwyd, LL28 5SS","01492 592544","CrossKeys.Conwy@phoenixpub.co.uk",""
"Marstonpubs","52.53167","-1.350211","","Cross Keys","Burbage, Nr. Hinckley, Leicestershire, LE10 2AF","01455 371413","CrossKeys.Burbage@phoenixpub.co.uk",""
"Marstonpubs","52.17341","-1.246076","","Cross Tree","Byfield, Daventry, Northampshire, NN11 6XJ","01327 264440","crosstrees@btconnect.com","https://www.crosstreebyfield.co.uk/"
"Marstonpubs","52.29346","-2.112794","","Crown","Wychbold, Droitwich, Worcestershire, WR9 7PF","01527 861413","crown.wychbold@marstons.co.uk","https://www.crownpubdroitwich.co.uk/"
"Marstonpubs","52.63398","-2.275273","","Crown","Albrighton, Wolverhampton, Shropshire, WV7 3JA","01902 372204","crown.albrighton@phoenixpub.co.uk","https://www.crownpubwolverhampton.co.uk/"
"Marstonpubs","52.544292","-2.122005","","Crown","High Street, Sedgley, Dudley, West Midlands, DY3 1RJ","01902 664308","Crown.Sedgley@phoenixpub.co.uk","https://www.thecrownpubandcarvery.co.uk/"
"Marstonpubs","52.65638","-1.952739","","Crown","196 Watling Street, Brownhills, West Midlands, WS8 7JU","01543 372604","crown.brownhills@marstons.co.uk","https://www.crownpubbrownhills.co.uk/"
"Marstonpubs","52.53589","-2.420303","","Crown","High Street, Bridgnorth, Shropshire, WV16 4DB","01746 763229","crown.bridgnorth@phoenixpub.co.uk","https://www.crownpubbridgnorth.co.uk/"
"Marstonpubs","52.671455","-1.933956","","Crown","High Street, Chasetown, Staffordshire, WS7 3XF","01543 520941","Crown.Chasetown@phoenixpub.co.uk",""
"Marstonpubs","52.15718","-2.266588","","Crown","Powick, Worcester, Worcestershire, WR2 4SF","01905 831272","crown.worcester@marstons.co.uk","https://www.crownpubworcester.co.uk/"
"Marstonpubs","53.566933","-0.646671","","Crown","209 Ashby High Street, Ashby, Scunthorpe, Lincolnshire, DN16 2JP","01724 488787","Crown.Scunthorpe@phoenixpub.co.uk",""
"Marstonpubs","52.783924","-1.628168","","Crown","Rosliston Road, Stapenhill,  Burton upon Trent, Staffordshire, DE15 9RF","01283 543081","crown.burtonontrent@phoenixpub.co.uk",""
"Marstonpubs","53.09905","-2.99844","","Crown","Llay, Wrexham, Clwyd, LL12 0NT","01978 449528","Crown.Llay@marstons.co.uk","https://www.crownpubllay.co.uk/"
"Marstonpubs","50.761673","-1.885668","","Crown","Broadhurst Avenue, Northbourne, Bournemouth, BH10 6JW","01202515386","Crown.Bournemouth@marstons.co.uk","https://www.crownnorthbourne.co.uk/"
"Marstonpubs","54.61717","-1.061479","","Crown & Anchor","High Street, Redcar, North Yorkshire, TS10 3DH","01642490097","CrownAndAnchor.Redcar@phoenixpub.co.uk","https://www.crownanchorpub.co.uk/"
"Marstonpubs","53.1897","-3.044024","","Crown & Liver","The Highway, Ewloe, Chester, Cheshire, CH5 3DN","01244 639127","CrownandLiver.Ewloe@phoenixpub.co.uk",""
"Marstonpubs","53.07798","-0.955331","","Crown Hotel","Market Place, Southwell, Nottinghamshire, NG25 0HE","01636 918153","Crown.Southwell@phoenixpub.co.uk",""
"Marstonpubs","52.583386","-2.05356","","Crown Inn","Cheapside, Willenhall, West Midlands, WV13 1PQ","01902939834","Crown.Cheapside@phoenixpub.co.uk",""
"Marstonpubs","52.6839","-1.536326","","Crown Inn","Church Street, Appleby Magna, Nr Swadlincote, Leicestershire, DE12 7BB","01530271633","CrownInn.ApplebyMagna@phoenixpub.co.uk","https://the-crown-inn-appleby-magna.business.site/"
"Marstonpubs","53.121178","-0.837116","","Crown Inn","Newark, Bathley   Newark, Nottinghamshire, NG23 6DA","01636 702305","millsalison@sky.com","http://the-crown-inn-bathley.edan.io/"
"Marstonpubs","53.22702","-2.335192","","Crown Inn","111 Main Road, Goostrey, Cheshire, CW4 8PE","01477 532128","Crown.Goostrey@marstons.co.uk","https://www.thecrownpubgoostrey.co.uk/"
"Marstonpubs","54.277523","-0.419293","","Crown Tavern","8 Scalby Road, Scarborough, North Yorkshire, YO12 5QB","01723 378204","crowntavern.scarborough@phoenixpub.co.uk","https://www.crowntavernscarborough.co.uk/"
"Marstonpubs","52.508575","-1.439809","","Crows Nest","Attleborough, Nuneaton, Warwickshire, CV11 6PJ","02476374833","CrowsNest.Nuneaton@marstons.co.uk","https://www.crowsnestnuneatonpub.co.uk/"
"Marstonpubs","54.84499","-1.339111","","Crows Nest","East Shore Village, North Road, Seaham, County Durham, SR7 7XR","0191 581 4927","crowsnest.seaham@marstons.co.uk","https://www.crowsnestpub.co.uk/"
"Marstonpubs","51.554073","0.248387","","Crumpled Horn","33-37 Corbetts Tey Road, Upminster, Greater London, RM14 2AJ","01708 226698","crumpledhorn.upminster@marstons.co.uk","https://www.crumpledhornpub.co.uk/"
"Marstonpubs","51.494816","-3.176884","","Crwys Hotel","Crwys Road, 103691, Cardiff, CF24 4NN","02920 371075","CrwysHotel.Cardiff@marstons.co.uk","http://www.crwyspubcardiff.co.uk/"
"Marstonpubs","53.065575","-2.980846","","Cunliffe Arms","Jeffreys Road, Wrexham, Clwyd, LL12 7PG","01978 311177","paulcunliffearms@yahoo.co.uk",""
"Marstonpubs","54.006825","-1.578882","","Curious Cow of Harrogate","Killinghall, Harrogate, North Yorkshire, HG3 2AP","01423 567035","info@thecuriouscowofharrogate.com","http://www.thecuriouscowofharrogate.com/"
"Marstonpubs","51.408993","-3.289896","","Cwm Talwg Public House","Severn Avenue, 107123, Barry, CF62 7FG","01446 732602","CwmTalwg.Barry@marstons.co.uk","http://www.cwmtawlgpubbarry.co.uk/"
"Marstonpubs","51.570805","-3.241243","","Cwrt Rawlin","Nantgarw Road, Caerphilly, Mid Glamorgan, CF83 1SN","02920 868001","cwrtrawlin.Caerphilly@marstons.co.uk","https://www.cwrtrawlinpub.co.uk/"
"Marstonpubs","53.53007","-2.42324","","Cyn's Tavern","Unit 8 Hulton Dist Ctre, Manchester, Greater Manchester, M28 0AU","01614250367","CynsTavern.Manchester@phoenixpub.co.uk",""
"Marstonpubs","54.81532","-1.375274","","Dancing Betty","117 Dalton Park, Murton, County Durham, SR7 9HU","01915804791","DancingBetty.CountyDurham@marstons.co.uk","https://www.dancingbettypubcountydurham.co.uk/"
"Marstonpubs","52.900288","-1.857971","","Dapple Grey","Town Meadows Way, Uttoxeter, Staffordshire, ST14 8AZ","01889 562 117","Dapplegrey.Uttoxeter@marstons.co.uk","https://www.dapplegreypub.co.uk/"
"Marstonpubs","51.615036","-3.105969","","Darran","St Mary Street, 101243, Risca, Newport, NP11 6GU","01633 612414","Darran.Risca@marstons.co.uk","https://sabrainpubs.com/pubs-and-hotels/south-wales/newport-torfaen/darran"
"Marstonpubs","51.616077","0.217402","","Deers Rest","Noak Hill Road,  Romford, Greater London, RM3 7LL","01708 381935","DeersRest.Romford@phoenixpub.co.uk","https://www.deersrestpub.co.uk/"
"Marstonpubs","54.887528","-1.835012","","Derwent Walk","Ebchester Hill, Ebchester Nr Consett, County Durham, DH8 0SX","01207 560347","steven.justice66@yahoo.com","https://www.derwentwalkinn.co.uk/"
"Marstonpubs","51.113564","-0.730429","","Devils Punch Bowl","London Road, Hind Head, Surrey, GU26 6AG","01428 606 565","sonia@devilspunchbowlhotel.co.uk","https://www.devilspunchbowlhotel.co.uk/"
"Marstonpubs","54.036263","-2.036762","","Devonshire Arms","Cracoe, Skipton, North Yorkshire, BD23 6LA","01756 699191","info@devonshirearmsinncracoe.co.uk","https://devonshirehotels.co.uk/devonshire-arms-hotel-spa/"
"Marstonpubs","53.1221","-1.264421","","Devonshire Arms","High Pavement, Sutton in Ashfield, Nottinghamshire, NG17 1BT","016232 32492","devonshirearms@phoenixpub.co.uk",""
"Marstonpubs","52.624992","-1.401245","","Dixie Arms Hotel","6 Main Street, Market Bosworth, Leicestershire, CV13 0JW","01455 290218","enquiries@dixiearmshotel.co.uk","https://www.dixiearmshotel.co.uk/"
"Marstonpubs","51.46305","-3.167876","","Dock","Unit 1 & U1 Mermaid Quay, 109560, Cardiff, CF10 5BZ","02920 450947","Dock.Cardiff@marstons.co.uk","https://sabrainpubs.com/pubs-and-hotels/south-wales/cardiff/the-dock-bar-kitchen"
"Marstonpubs","52.37159","-2.187286","","Dog","Worcester Road, Harvington, Stourbridge, Worcestershire, DY10 4LN","01562 777253","TheDog.Harvington@marstons.co.uk","https://www.doginnpub.co.uk/"
"Marstonpubs","52.871246","-1.361092","","Dog & Duck","Shardlow, Shardlow Derby, Derbyshire, DE72 2GR","01332 792224","dogandduck.shardlow@marstons.co.uk","https://www.dogduckpub.co.uk/"
"Marstonpubs","52.579166","-1.315125","","Dog & Gun","Keats Lane, Earl Shilton, Leicestershire, LE9 7DR","01455 396188","DogandGun.EarlShilton@phoenixpub.co.uk",""
"Marstonpubs","52.589047","-1.210035","","Dog & Gun","9 Cross Street, Enderby, Leicestershire, LE19 4NJ","01163 191712","dogandgun.leicestershire@phoenixpub.co.uk",""
"Marstonpubs","53.552208","-2.891103","","Dog & Gun Inn","Long Lane, Aughton, Ormskirk, Lancashire, L39 5BU","01695 421999","mcoupe30@gmail.com","http://thedogandgunaughton.co.uk/"
"Marstonpubs","53.79235","-2.409939","","Dog & Otter","Cliffe Lane, Gr Harwood, Blackburn, Lancashire, BB6 7PG","01254 887973","DogAndOtter.Blackburn@phoenixpub.co.uk","https://www.dogottergreatharwood.co.uk/"
"Marstonpubs","52.59983","-2.082119","","Dog & Partridge","High Street, Wednesfield, Wolverhampton, West Midlands, WV11 1SZ","01902 256798","dogandpartridge.wednesfield@phoenixpub.co.uk",""
"Marstonpubs","53.501743","-2.140377","","Dog & Partridge","Failsworth, Manchester, Greater Manchester, M35 9NP","0161 6811987","dogandpartridge.failsworth@marstons.co.uk","https://www.dogpartridgepub.co.uk/"
"Marstonpubs","52.713203","-2.745623","","Dog & Pheasant","20 Severn Street, Shrewsbury, Shropshire, SY1 2JA","01743588705","DogAndPheasant.Shrewsbury@phoenixpub.co.uk",""
"Marstonpubs","53.505184","-2.105636","","Dog & Pheasant Inn","528 Oldham Road, Waterloo, Ashton under Lyne, Lancashire, OL7 9PQ","0161 330 4894","marktopdog@hotmail.com",""
"Marstonpubs","52.214935","-4.360474","","Dolau","Church Street, New Quay, SA45 9NT","01545560881","Dolau.NewQuay@marstons.co.uk",""
"Marstonpubs","52.54414","-4.044318","","Dovey Inn","8 Seaview Terrace, 100335, Aberdovey, LL35 0EF","01654 767332","DoveyInn.Aberdovey@marstons.co.uk","http://www.doveyinnpubaberdovey.co.uk/"
"Marstonpubs","51.797905","-4.743562","","Dragon Inn","Water Street, Narberth, Pembrokeshire, SA67 7AT","01834 860257","Dragon.Narbeth@phoenixpub.co.uk",""
"Marstonpubs","51.284428","-1.072848","","Dragonfly","Carpenter's Down, Basingstoke, Hampshire, RG24 9AS","01256 830714","Dragonfly.Basingstoke@marstons.co.uk","https://www.dragonflypubbasingstoke.co.uk/"
"Marstonpubs","53.737553","-0.411697","","Drum & Cymbals","26 Sibelius Road, Rokeby Park, Hull, East Yorkshire, HU4 7NH","01482 353002","DrumAndCymbals.Hull@phoenixpub.co.uk",""
"Marstonpubs","52.51853","-2.175679","","Dudley Arms","Wolverhampton Road, Himley, Dudley, Staffordshire, DY3 4LB","01902 892 223","donhirst@hotmail.com","https://thedudleyarms.co.uk/"
"Marstonpubs","50.836968","-0.781607","","Duke & Rye","West Street, Chichester, West Sussex, PO19 1QU","01243539637","DukeandRye.Chichester@phoenixpub.co.uk","https://www.dukeryechichester.co.uk/"
"Marstonpubs","53.781532","-0.414559","","Duke of Cumberland","Market Green, Cottingham, East Yorkshire, HU16 5QG","01482847199","DukeofCumberland.Cottingham@phoenixpub.co.uk",""
"Marstonpubs","53.72297","-0.504987","","Duke of Cumberland","High Street, North Ferriby, East Yorkshire, HU14 3JP","01482 631592","dukeofcumberland.northferriby@phoenixpub.co.uk","https://www.dukeofcumberlandnorthferriby.co.uk/"
"Marstonpubs","52.9862","-3.041105","","Duke Of Wellington","Duke Street, Ruabon, Clwyd, LL14 6DE","01978810165","dukeofwellington.ruabon@phoenixpub.co.uk",""
"Marstonpubs","53.09938","-1.269318","","Duke of Wellington","Church Street, Kirkby in Ashfield, Nottinghamshire, NG17 8LA","01623 391289","DukeofWellington.KirkbyinAshfield@phoenixpub.co.uk",""
"Marstonpubs","51.47886","-3.176009","","Duke Of Wellington","The Hayes, 109665, Cardiff, CF10 1AJ","02920 337190","DukeOfWellington.Cardiff@marstons.co.uk","http://www.dukeofwellingtoncardiff.co.uk/"
"Marstonpubs","51.46201","-3.44927","","Duke Of Wellington Hotel","48 High Street, 107212, Cowbridge, CF71 7AG","01446 773592","DukeOfWellingtonHotel.Cowbridge@marstons.co.uk","http://www.dukeofwellingtoncowbridge.co.uk/"
"Marstonpubs","53.77996","-0.302596","","Duke of York","Sutton, Nr Hull, East Yorkshire, HU7 4TD","01482 786930","DukeofYork.Hull@phoenixpub.co.uk",""
"Marstonpubs","56.746346","-2.984624","","Dunnichen Stone","2 Berrymoss Lane, Forfar, Dundee, DD8 1GY","01307469355","DunnichenStone.Forfar@marstons.co.uk","https://www.dunnichenstonepubforfar.co.uk/"
"Marstonpubs","54.33697","-1.434039","","Durham Ox","157 High Street, Northallerton, North Yorkshire, DL7 8JX","01609780836","durhamox.northallerton@phoenixpub.co.uk","https://www.durhamoxpub.co.uk/"
"Marstonpubs","53.689045","-2.693634","","Eagle & Child","30 Church Road, Leyland, Lancashire, PR25 3AA","01772 433531","eaglechild.leyland@phoenixpub.co.uk","https://www.eaglechildpub.co.uk/"
"Marstonpubs","54.519325","-1.360367","","Eagle Inn","Eaglescliffe, Yarm, Stockton on Tees, County Durham, TS16 0NA","01642 780413","eagle.eaglescliffe@phoenixpub.co.uk","https://www.eagleinnpub.co.uk/"
"Marstonpubs","52.190483","-2.219027","","Eagle Vaults","2 Friar Street, Worcester, Worcestershire, WR1 2LZ","01905863592","eaglevaults.worcester@phoenixpub.co.uk",""
"Marstonpubs","52.68271","-1.820394","","Earl of Lichfield","Conduit Street, Lichfield, Staffordshire, WS13 6JB","01543 897461","earloflichfield.lichfield@phoenixpub.co.uk","https://www.earloflichfieldpub.co.uk/"
"Marstonpubs","52.89933","-1.294421","","Eaton Farm","Wilsthorpe Road, Long Eaton, Derbyshire, NG10 4AW","01159 462613","eatonfarm.longeaton@marstons.co.uk","https://www.eatonfarmpub.co.uk/"
"Marstonpubs","51.361565","-0.192488","","EBB & Flow Sutton","59-61 High st, Sutton, Greater London, SM1 1DT","0208 7707337","EBBandFlow.Sutton@marstons.co.uk","https://www.ebbflowsutton.co.uk/"
"Marstonpubs","51.374096","-2.917468","","Ebdon","Lilac Way, Wick St Lawrence, Somerset, BS22 9WE","01934513005","ebdonarms.westonsupermare@phoenixpub.co.uk","https://www.ebdonpub.co.uk/"
"Marstonpubs","53.867683","-2.42126","","Edisford Bridge","Edisford, Clitheroe, Lancashire, BB7 3LJ","01200422637","EdisfordBridge.Clitheroe@phoenixpub.co.uk",""
"Marstonpubs","53.118492","-2.452802","","Eight Farmers","Parkers Road, Coppenhall, Crewe, Cheshire, CW1 4PY","01270 747397","EightFarmers.Crewe@phoenixpub.co.uk","https://www.eightfarmerspubcrewe.co.uk/"
"Marstonpubs","53.378807","-2.700831","","Eight Towers","Weates Close, Widnes, Cheshire, WA8 3RH","0151 4248063","eighttowers.widnes@phoenixpub.co.uk","https://www.eighttowerspub.co.uk/"
"Marstonpubs","53.40249","-1.421676","","Eighteen Ten","3 Arena Court, Don Valley Sheffield, South Yorkshire, S9 2LF","01142 432320","EighteenTen.Sheffield@marstons.co.uk","https://www.theeighteentenpub.co.uk/"
"Marstonpubs","53.43238","-1.487843","","Eight-Foot Way","2 Chaucer Road, Longley Sheffield, South Yorkshire, S5 9QY","01143030140","EightFootWay.Sheffield@marstons.co.uk","https://www.eightfootwaypub.co.uk/"
"Marstonpubs","50.824192","-1.888086","","Elephant & Castle","126 Station Road, West Moors, Dorset, BH22 0JB","01202 872896","ElephantAndCastle.Poole@phoenixpub.co.uk","https://www.elephantcastlewestmoorspub.co.uk/"
"Marstonpubs","51.48111","-3.181796","","Elevens Bar & Grill","Castle Street, Cardiff, CF10 1BS","","ElevensBarandGrill.Cardiff@marstons.co.uk",""
"Marstonpubs","53.199535","-1.334951","","Elm Tree","Mansfield Road, Heath, Derbyshire, S44 5SE","01246 850490","info@theelmtreeheath.co.uk","https://www.theelmtreeheath.co.uk/"
"Marstonpubs","52.45109","-1.196686","","Elms","St John's Business Park, Lutterworth, Leicestershire, LE17 4HB","01455 552301","Elms.Lutterworth@marstons.co.uk","https://www.elmspub.co.uk/"
"Marstonpubs","51.675037","-4.707469","","Evergreen Inn","3 The Green, Pembrokshire, Tenby, SA70 8EY","01834219317","Evergreen.Tenby@phoenixpub.co.uk",""
"Marstonpubs","53.061993","-1.441897","","Excavator","Buckland Hollow, Ambergate, Belper, Derbyshire, DE56 2HS","01773 744400","excavator.belper@phoenixpub.co.uk","https://www.excavatorpub.co.uk/"
"Marstonpubs","52.92458","-1.472596","","Exeter Arms","Exeter Place, Derby, Derbyshire, DE1 2EU","01332 605323","lucy@exeterarms.co.uk","https://www.exeterarms.co.uk/"
"Marstonpubs","53.271023","-1.643167","","Eyre Arms","Chesterfield Road, Calver, Derbyshire, S32 3XH","01433 208302","EyreArms.HopeValley@phoenixpub.co.uk","https://www.eyrearmspubhopevalley.co.uk/"
"Marstonpubs","52.473118","-2.025453","","Fairfield Inn","Fairfield Road, Hurst Green, Halesowen, West Midlands, B62 9JA","0121 4233361","fairfield.halesowen@phoenixpub.co.uk","https://www.fairfieldinnpub.co.uk/"
"Marstonpubs","53.041374","-2.996226","","Fairfield Tavern","Erddig Road, Wrexham, Clwyd, LL13 7DW","01978448681","fairfield.tavern.wrexham@phoenixpub.co.uk",""
"Marstonpubs","51.48942","-3.239943","","Fairwater Hotel","St  Fagans Road, 105430, Cardiff, CF5 3AH","02920 333049","john-imn@hotmail.co.uk","https://sabrainpubs.com/pubs-and-hotels/south-wales/cardiff/fairwater"
"Marstonpubs","53.340317","-1.396985","","Fairway Inn","Birley Wood, Birley Sheffield, South Yorkshire, S12 3BP","0114 2653692","FairwayInn.Sheffield@phoenixpub.co.uk","https://www.fairwayinnsheffield.co.uk/"
"Marstonpubs","52.30925","-1.661137","","Falcon","Birmingham Road, Haseley Hatton, Warwick, Warwickshire, CV35 7HA","01926484281","info@thefalconathatton.com","https://thefalconathatton.com/"
"Marstonpubs","53.738457","-1.547078","","Falconers Rest","Thorpe Lane, Middleton, Leeds, West Yorkshire, LS10 4EP","01133181824","FalconersRest.Leeds@phoenixpub.co.uk",""
"Marstonpubs","52.717804","-2.480127","","Fallow Field","Hadley Park East, Telford, Shropshire, TF1 6AF","01952 603542","FallowField.Telford@marstons.co.uk","https://www.fallowfieldpubtelford.co.uk/"
"Marstonpubs","50.62839","-2.460693","","Famous Old Spa","229 Dorchester Road, Radipole, Weymouth, DT3 5EQ","01305785231","FamousOldSpa.Weymouth@marstons.co.uk","https://www.famousoldsparadipole.co.uk/"
"Marstonpubs","52.571476","-1.894173","","Farmer John's","Streetly, Sutton Coldfield, West Midlands, B74 2DX","0121 352 1000","farmerjohns.streetly@marstons.co.uk","https://www.farmerjohnspub.co.uk/"
"Marstonpubs","54.603664","-3.163039","","Farmers Arms","Portinscale, Nr Keswick, Cumbria, CA12 5RW","01768744861","FarmersArms.Keswick@phoenixpub.co.uk","https://www.farmersarmspub.co.uk/"
"Marstonpubs","51.395927","-0.973242","","Farriers Arms","Old Basingstoke Road, Reading, Berkshire, RG7 1AE","01189883132","farriersarms.reading@phoenixpub.co.uk","https://www.farriersarmsspencerswood.co.uk/"
"Marstonpubs","52.742275","-2.720775","","Featherbed","Battlefield Road, Shrewsbury, Shropshire, SY1 4AB","01743 460217","Featherbed.Shrewsbury@marstons.co.uk","https://www.featherbedpubshrewsbury.co.uk/"
"Marstonpubs","52.688515","-1.838552","","Feathers Inn","118 Beacon Street, Lichfield, Staffordshire, WS13 7BA","01543 417029","thefeathersinn@btconnect.com","https://feathersinn.co.uk/"
"Marstonpubs","52.770077","-1.429776","","Ferrers Arms","Lount, Ashby De La Zouch, Leicestershire, LE65 1SD","01530 412982","ferrers.lount@marstons.co.uk","https://www.ferrersarmspub.co.uk/"
"Marstonpubs","53.72994","-0.580701","","Ferry Inn","Station road, Brough, East Yorkshire, HU15 1DY","01482 667340","FerryInn.Hull@phoenixpub.co.uk","https://www.ferryinnbroughpub.co.uk/"
"Marstonpubs","53.306233","-3.46935","","Ffordd Derwen","201 Rhuddlan Road, Rhyl, Clwyd, LL18 2RH","01745 334296","FforddDerwen.Rhyl@phoenixpub.co.uk","https://www.fforddderwenpub.co.uk/"
"Marstonpubs","51.542923","-3.208487","","Ffynnon Wen","Thornhill Road, Cardiff, South Glamorgan, CF14 9UA","02920 522535","ffynnonwen.cardiff@marstons.co.uk","https://www.ffynnonwenpub.co.uk/"
"Marstonpubs","53.330612","-1.909028","","Fickle Mermaid","Foresters Way, Chapel En Le Frith, Derbyshire, SK23 0RB","01298 812 346","FickleMermaid.Chapelenlefrith@marstons.co.uk","https://www.ficklemermaidpub.co.uk/"
"Marstonpubs","52.241024","-0.883469","","Fiddler's","130 Wellingborough Road, Northampton, Northamptonshire, NN1 4DR","01604 949808","Fiddlers.Northampton@phoenixpub.co.uk",""
"Marstonpubs","53.656193","-2.65575","","Fieldfare","Foxhole Road, Chorley, Lancashire, PR7 1NY","01257267846","Fieldfare.Chorley@marstons.co.uk","https://www.fieldfarepub.co.uk/"
"Marstonpubs","51.290894","0.487776","","Fields at Aylesford","St Laurence Avenue, Maidstone, Kent, ME16 0ZP","01622 683985","Fields.Aylesford@marstons.co.uk","http://fieldsaylesford.co.uk/"
"Marstonpubs","51.50234","-0.110524","","Fire Station","150 Waterloo Road, Waterloo, Greater London, SE1 8SB","020 3727 5938","info@thefirestationwaterloo.com","https://www.thefirestationwaterloo.com/"
"Marstonpubs","52.63235","-1.136338","","Firebug","Millston Lane, Leicester, Leicestershire, LE1 5JN","01162 551228","info@firebugbar.co.uk",""
"Marstonpubs","52.57784","-2.186792","","Firs Inn","Castlecroft, Wolverhampton, West Midlands, WV3 8HG","01902763036","firs.wolverhampton@phoenixpub.co.uk","https://www.firsinnpub.co.uk/"
"Marstonpubs","53.537136","-2.68662","","Fishergate Inn","52 Orrell Road, Orrell, Wigan, Greater Manchester, WN5 8HD","01942 375708","Fishergate.Wigan@phoenixpub.co.uk",""
"Marstonpubs","50.85792","-3.513569","","Fisherman's Cot","Bickleigh, Tiverton, Devon, EX16 8RW","01884855237","info@fishermanscot-Bickleigh.com","https://www.fishermanscotpub.co.uk/"
"Marstonpubs","51.410687","0.757827","","Five Bridges","Queenborough Road, Kent, Kent, ME11 5AR","01795342093","FiveBridges.IsleofSheppey@marstons.co.uk","https://www.fivebridgespubisleofsheppey.co.uk/"
"Marstonpubs","50.74369","-1.86183","","Fiveways","423 Charminster Road, Bournemouth, Dorset, BH8 9QY","01202549673","Fiveways.Bournemouth@marstons.co.uk","https://www.fivewayspub.co.uk/"
"Marstonpubs","53.549507","-1.838259","","Fleece","The Village Holme, Holmfirth, Huddersfield, West Yorkshire, HD9 2QG","01484 683449","shirley@fleeceinnholme.co.uk","https://www.fleeceinnholme.co.uk/"
"Marstonpubs","52.54243","-1.392401","","Flintlock","Roston Drive,  Hinckley, Leicestershire, LE10 0XP","01455890109","Flintlock.Hinckley@phoenixpub.co.uk","https://www.flintlockpubhinckley.co.uk/"
"Marstonpubs","54.85106","-1.517077","","Floater's Mill","Woodstone Village, Fencehouses, County Durham, DH4 6BQ","01913408272","FloatersMill.Fencehouses@phoenixpub.co.uk","https://www.floatermillspubfencehouses.co.uk/"
"Marstonpubs","53.79671","-1.375309","","Fly Line Garforth","Aberford Road, Garforth, West Yorkshire, LS25 2EB","0113 493 1918","FlyLine.Garforth@marstons.co.uk","https://www.theflylinepubgarforth.co.uk/"
"Marstonpubs","52.750893","-0.941065","","Flying Childers","Kirby Bellars, Nr. Melton Mowbray, Leicestershire, LE14 2DU","01664 813972","flyingchilders.melton@marstons.co.uk","https://www.flyingchilderspub.co.uk/"
"Marstonpubs","53.500237","-1.088022","","Flying Childers","Nostell Place,  Doncaster, South Yorkshire, DN4 7JA","01302536592","FlyingChilders.Doncaster@phoenixpub.co.uk","https://www.flyingchilderspubdoncaster.co.uk/"
"Marstonpubs","52.092964","0.404644","","Flying Shuttle","Three Counties Way, Haverhill, Suffolk, CB9 7FB","01440 702853","FlyingShuttle.Haverhill@marstons.co.uk","https://www.flyingshuttlepubhaverhill.co.uk/"
"Marstonpubs","53.783405","-1.795884","","Flying Squirrel","Clayton Road, Bradford, West Yorkshire, BD7 2SG","01274 062690","FlyingSquirrel.Bradford@marstons.co.uk","https://www.theflyingsquirrelpubbradford.co.uk/"
"Marstonpubs","53.066082","-2.150071","","Foaming Quart","5 Frobisher Street, Norton Green,  Stoke on Trent, Staffordshire, ST6 8PD","01782911171","Foaming.Quart@phoenixpub.co.uk","https://www.foamingquartpub.co.uk/"
"Marstonpubs","52.58186","-1.90202","","Foley Arms","293 Foley Road West,  Sutton Coldfield, West Midlands, B74 3NU","01215808471","FoleyArms.SuttonColdfield@marstons.co.uk","https://www.foleyarmspub.co.uk/"
"Marstonpubs","52.57849","-2.34235","","Folley Inn","Stableford, Bridgnorth, Shropshire, WV15 5LR","","",""
"Marstonpubs","51.50237","-2.479038","","Folly","Westerleigh Road, Emersons Green, Gloucestershire, BS16 7AJ","01179 573961","folly.bristol@marstons.co.uk","https://www.follypub.co.uk/"
"Marstonpubs","53.13667","-1.252079","","Forest Tavern","Forest Road, Skegby, Sutton in Ashfield, Nottinghamshire, NG17 3BB","01623 550126","ForestTavern.Skegby@phoenixpub.co.uk",""
"Marstonpubs","53.83969","-0.411937","","Foresters Arms","Beckside, Beverley, East Yorkshire, HU17 0PR","01482679012","Foresters.Beverley@phoenixpub.co.uk","https://www.forestersarmspub.co.uk/"
"Marstonpubs","52.5101","-2.1328","","Forge","Pensnett, Dudley, West Midlands, DY5 4TS","01384 457359","forge.pensnett@marstons.co.uk","https://www.forgepubdudley.co.uk/"
"Marstonpubs","55.950714","-3.208886","","Foundry 39","39A Queensferry Road, Edinburgh, EH2 4RA","01315106766","edinburgh@foundryproject.com","https://foundryproject.com/edinburgh.html"
"Marstonpubs","50.715424","-1.983854","","Foundry Arms","58 Lagland Street,  Poole, Dorset, BH15 1QG","01202 772600","FoundryArms.Poole@phoenixpub.co.uk","https://www.thefoundryarms.co.uk/"
"Marstonpubs","53.99322","-1.543069","","Foundry Project Harrogate","1 - 1a The Ginnel, Harrogate, North Yorkshire, HG1 2RB","01423740701","harrogate@foundryproject.com","https://foundryproject.com/harrogate.html"
"Marstonpubs","53.485104","-2.23686","","Foundry Project Manchester","Thomas Street, Manchester, Greater Manchester, M4 1BD","0161 839 7195","manchester@foundryproject.com","https://foundryproject.com/manchester.html"
"Marstonpubs","52.414963","-2.114031","","Fountain","Clent, Stourbridge, West Midlands, DY9 9PU","01562 883286","macey@yesit.co.uk","https://www.thefountainatclent.co.uk/"
"Marstonpubs","52.454487","-2.119195","","Fox","Lye, Stourbridge, West Midlands, DY9 7EW","","ianvhanke@hotmail.co.uk",""
"Marstonpubs","51.550118","-2.434211","","Fox","Broad Lane, Bristol, Gloucestershire, BS37 7LD","01454 227431","thefox.yate@marstons.co.uk","https://www.foxpub.co.uk/"
"Marstonpubs","51.399113","-2.675062","","Fox & Goose","Bridgwater Road, Barrow Gurney, Somerset, BS48 3SL","01275 472202","foxandgoose.bristol@marstons.co.uk","https://www.foxgoosepub.co.uk/"
"Marstonpubs","53.30791","-1.391393","","Fox & Hounds","37 Main Road, Marsh Lane, Eckington, Sheffield, Derbyshire, S21 5RH","01246395102","FoxandHounds.Eckington@phoenixpub.co.uk",""
"Marstonpubs","51.52388","-3.113095","","Fox & Hounds Hotel","Chapel Row, 101430, Cardiff, CF3 5UB","02920 790077","FoxandHoundsHotel.StMellons@marstons.co.uk","http://www.foxandhoundspubstmellons.co.uk/"
"Marstonpubs","51.515667","-3.218516","","Fox & Hounds Hotel","Old Church Road, 104760, Cardiff, CF14 1AD","02920 693377","FoxandHoundsHotel.Whitchurch@marstons.co.uk","https://sabrainpubs.com/pubs-and-hotels/south-wales/cardiff/fox-hounds-whitchurch"
"Marstonpubs","54.70567","-1.566171","","Fox Cub","Durham Gate, County Durham, County Durham, DH6 5JY","01388 819140","foxcub.spennymoor@marstons.co.uk","https://www.foxcubpubspennymoor.co.uk/"
"Marstonpubs","52.56217","-2.259407","","Fox Inn","Shipley, Bridgnorth Road, Wolverhampton, Staffordshire, WV6 7EH","01902 700376","petertaylor1968@icloud.com","https://www.thefoxatshipley.co.uk/"
"Marstonpubs","52.51328","-1.455855","","Fox Inn","Attleborough, Nuneaton, Warwickshire, CV11 4JY","02476 351232","fox.nuneaton@marstons.co.uk","https://www.foxinnpub.co.uk/"
"Marstonpubs","53.15604","-1.173365","","Foxglove","Fulmar Drive, Mansfield, Nottinghamshire, NG19 0GG","01623 646557","foxglove.mansfield@marstons.co.uk","https://www.foxglovepub.co.uk/"
"Marstonpubs","53.01053","-2.225471","","Foyer","Hassell Street, Newcastle under Lyme, Staffordshire, ST5 1AD","01782 911800","thefoyernewcastle@yahoo.co.uk",""
"Marstonpubs","52.785877","-1.576997","","Freehold Tavern","Bretby Road, Newhall, Burton upon Trent, Derbyshire, DE11 0LH","01283619487","FreeholdTavern.Newhall@phoenixpub.co.uk",""
"Marstonpubs","52.973305","-2.149406","","Gables","Blurton, Stoke on Trent, Staffordshire, ST3 3DS","01782 332 343","gables.stoke@phoenixpub.co.uk","https://www.gablespub.co.uk/"
"Marstonpubs","52.931027","-1.107109","","Gamston Lock","Radcliffe Road, Gamston, Nottinghamshire, NG2 6NP","01159 989507","GamstonLock.Gamston@marstons.co.uk","https://www.gamstonlockpubgamston.co.uk/"
"Marstonpubs","53.877556","-3.010799","","Gardeners Arms","Fleetwood Road North,  Thornton-Cleveleys, Lancashire, FY5 4BL","01253 862501","GardenersArms.Thornton@phoenixpub.co.uk","https://www.gardenersarmspub.co.uk/"
"Marstonpubs","52.994385","-2.187232","","Gardeners Retreat","Boothen, Stoke on Trent, Staffordshire, ST4 4BJ","01782911846","gardenersretreat.stoke@phoenixpub.co.uk",""
"Marstonpubs","52.45414","-2.156233","","Garibaldi Inn","19 Cross Street, Stourbridge, West Midlands, DY8 3XE","01384 671866","garibaldi.stourbridge@phoenixpub.co.uk",""
"Marstonpubs","52.63905","-1.38997","","Gate","Osbaston, Osbaston,Nuneaton., Leicestershire, CV13 0HP","01455 290502","gateinn.osbaston@marstons.co.uk","https://www.gatepubnuneaton.co.uk/"
"Marstonpubs","52.63478","-1.665072","","Gate","Amington, Tamworth, Staffordshire, B77 3BY","0182763189","gateinn.tamworth@phoenixpub.co.uk","https://www.gatepubtamworth.co.uk/"
"Marstonpubs","53.08493","-1.657874","","Gate Inn","Well Street, Brassington, Derbyshire, DE4 4HJ","01629 540448","gate.inne@gmail.com","https://www.theoldegateinne.co.uk/"
"Marstonpubs","52.771866","-1.596373","","Gate Inn","49 Woodland Road, Stanton, Burton on Trent, Derbyshire, DE15 9TH","01283 480441","gateinn.burton@phoenixpub.co.uk","https://www.gatepubinnburton.co.uk/"
"Marstonpubs","53.309876","-0.943977","","Gate Inn","All Hallows St, Ordsall near Retford, Nottinghamshire, DN22 7TP","01777470396","cathycaudwell@hotmail.co.uk",""
"Marstonpubs","52.53121","-1.662956","","Gate Inn","Nether Witacre, Birmingham, Warwickshire, B46 2DS","01675 481292","kennethbaird123@btinternet.com",""
"Marstonpubs","52.83153","-1.150666","","Generous Briton","14 Main Street, Costock, Nottinghamshire, LE12 6XD","01509852852","GenerousBriton.Costock@phoenixpub.co.uk","https://www.generousbriton.co.uk/"
"Marstonpubs","52.53434","-1.228782","","George & Dragon","18 Green Lane, Broughton Astley, Leicestershire, LE9 6RA","01455285074","GeorgeandDragon.BroughtonAstley@phoenixpub.co.uk",""
"Marstonpubs","50.89461","-0.552847","","George & Dragon","Houghton, Arundel, West Sussex, BN18 9LW","01798 831 559","gavin-6@hotmail.co.uk","https://www.hegeorgeanddragonhoughton.co.uk/"
"Marstonpubs","53.249188","-3.135172","","George & Dragon","Church Street, Flint, Flintshire, CH6 5AE","01352 734628","George.andDragonFlintshire@phoenixpub.co.uk",""
"Marstonpubs","52.91574","-2.168972","","George & Dragon","Meaford, Stone, Stoke on Trent, Staffordshire, ST15 0PX","01785748787","georgeanddragon.stone@phoenixpub.co.uk","https://www.eorgedragonmeaford.co.uk/"
"Marstonpubs","52.732502","-1.747004","","George & Dragon","Main Street, Alrewas, Burton upon Trent, Staffordshire, DE13 7AE","01283487398","GeorgeandDragon.Alrewas@phoenixpub.co.uk","https://www.georgedragonalrewasburtonupontrent.co.uk/"
"Marstonpubs","54.59992","-3.135348","","George Hotel","St John Street, Keswick, Cumbria, CA12 5AZ","01768 392147","GeorgeHotel.Keswick@marstons.co.uk","http://georgehotelkeswick.co.uk/"
"Marstonpubs","53.310616","-4.632879","","George Hotel","4 Market Street, Holyhead, Gwynedd, LL65 1UL","01407238237","GeorgeHotel.Holyhead@phoenixpub.co.uk",""
"Marstonpubs","53.378677","-1.945484","","George Hotel","14 Church Street, Hayfield, High Peak, Derbyshire, SK22 2JE","01663 745295","GeorgeHotel.Hayfield@phoenixpub.co.uk","https://www.georgehotelhayfield.co.uk/"
"Marstonpubs","53.09658","-1.804686","","George Hotel","Alstonefield, Alstonefield   Ashbourne, Derbyshire, DE6 2FX","01335 310205","thegeorge@penrosejohnson.com",""
"Marstonpubs","50.719894","-1.978781","","George Hotel","230 High Street, Poole, Dorset, BH15 1DY","01202687510","GeorgeHotel.Poole@phoenixpub.co.uk","https://www.georgehotelpoole.co.uk/"
"Marstonpubs","50.950478","-2.517227","","George Hotel","Higher Cheap Street,  Sherborne, Dorset, DT9 3JD","01935 812785","lee.cook9@aol.co.uk",""
"Marstonpubs","54.46809","-2.585155","","George Hotel","Front Street, Orton, Cumbria, CA10 3RJ","01539624071","georgehotel.orton@gmail.com","https://www.thegeorgehotelorton.co.uk/"
"Marstonpubs","52.452343","-2.161716","","Gigmill","South Road, Stourbridge, West Midlands, DY8 3UL","01384 393633","Gigmill.Stourbridge@phoenixpub.co.uk","https://www.gigmillstourbridgepub.co.uk/"
"Marstonpubs","54.77886","-1.539736","","Gilesgate Moor Hotel","Teesdale Terrace, Gilesgate Moor, Durham, County Durham, DH1 2RN","0191 386 6453","wgpga@aol.com","https://www.shouthotels.com/gilesgate-moor-hotel-durham/"
"Marstonpubs","52.473137","-2.15527","","Glassworks","Audham Road, Stourbridge, West Midlands, DY8 4AF","01384 482699","Glassworks.Stourbridge@marstons.co.uk","https://www.glassworkspubstourbridge.co.uk/"
"Marstonpubs","52.578255","-1.150816","","Glen Parva Manor","Glen Parva, Leicester, Leicestershire, LE2 9TL","0116 2477604","glenparvamanor.leicester@marstons.co.uk","https://www.glenparvamanorpub.co.uk/"
"Marstonpubs","52.60824","-1.666294","","Globe Inn","Watling Street, Wilnecote, Tamworth, Staffordshire, B77 5BA","01827 254554","paulspubs@hotmail.co.uk","https://www.theglobetamworth.com/"
"Marstonpubs","53.12636","-1.151039","","Golden Eagle","Oakleaf Close, Mansfield, Nottinghamshire, NG18 4GF","01623 414627","goldeneagle.mansfield@marstons.co.uk","https://www.goldeneaglemansfield.co.uk/"
"Marstonpubs","52.535038","-1.889726","","Golden Hind","188 Kingstanding Road,  Kingstanding, West Midlands, B44 8JR","01213566847","GoldenHind.Kingstanding@phoenixpub.co.uk","https://www.goldenhindpub.co.uk/"
"Marstonpubs","54.543106","-1.924043","","Golden Lion","30 Market Place, Barnard Castle, County Durham, DL12 8NB","01833 690295","goldenlion.barnardcastle@phoenixpub.co.uk","https://www.goldenlionpub.co.uk/"
"Marstonpubs","52.319862","-2.07212","","Golden Lion","Charford, Bromsgrove, Worcestershire, B60 3PB","01527 757319","goldenlion.bromsgrove@phoenixpub.co.uk",""
"Marstonpubs","53.05051","-3.068463","","Golden Lion","Tabor Hill, Coedpoeth, Wrexham, Clwyd, LL11 3RP","01978 753781","goldenlion.coedpoeth@phoenixpub.co.uk","https://www.goldenlioncoedpoethwrexham.co.uk/"
"Marstonpubs","52.603218","-2.105617","","Golden Lion","Cannock Road,  Wolverhampton, West Midlands, WV10 0RH","01902 738597","GoldenLion.Wolverhampton@phoenixpub.co.uk","https://www.goldenlionwolverhampton.co.uk/"
"Marstonpubs","50.715935","-2.434653","","Goldies","36 High East Street,  Dorchester, Dorset, DT1 1HN","01305 458202","Goldies.Dorchester@phoenixpub.co.uk",""
"Marstonpubs","53.769558","-0.379687","","Goodfellowship Inn","Cottingham Road, Hull, East Yorkshire, HU5 4AT","01482342858","goodfellowship.hull@marstons.co.uk","https://www.goodfellowshipinnhull.co.uk/"
"Marstonpubs","52.547627","-2.050743","","Gospel Oak","1 Bilston Road, Tipton, West Midlands, DY4 0BT","01215563491","gospeloak.tipton@marstons.co.uk","https://www.gospeloakpub.co.uk/"
"Marstonpubs","52.539864","-2.003273","","Gough Arms","Jowetts Lane, West Bromwich, West Midlands, B71 2QR","0121 556 0103","gougharms.westbromwich@phoenixpub.co.uk","https://www.gougharmspub.co.uk/"
"Marstonpubs","52.88191","-1.494007","","Grampian Inn","2A Cromerty Close, Sinfin Derby, Derbyshire, DE24 9NB","01332 988330","grampian.derby@phoenixpub.co.uk",""
"Marstonpubs","52.632603","-1.133777","","Grand Union","24 King Street, 2025, Leicester, Leicestershire, LE1 6RL","0116 326 6894","GrandUnion.Leicester@phoenixpub.co.uk","https://www.grandunionleicesterpub.co.uk/"
"Marstonpubs","51.613953","-3.943408","","Grape & Olive","28Th Floor, The Tower, Trawler Road, 100260, Swansea, Maritime Quarter, SA1 1JW","01792 462617","GrapeandOlive.Swansea@marstons.co.uk","https://sabrainpubs.com/pubs-and-hotels/south-wales/swansea/grape-olive-swansea"
"Marstonpubs","54.177704","-0.838969","","Grapes","Great Habton, Malton, North Yorkshire, YO17 6TU","01653 669 166","adam.myers1@btconnect.com","http://www.thegrapes-inn.co.uk/"
"Marstonpubs","53.024788","-1.475983","","Grapes Inn","High Street, Belper, Derbyshire, DE56 1GF","01773 826928","phil.varney@outlook.com",""
"Marstonpubs","53.087463","-2.207106","","Grapes Inn","2 Station Road, Newchapel, Kidsgrove, Stoke on Tren, Staffordshire, ST7 4QT","01782926829","Grapes.Kidsgrove@phoenixpub.co.uk",""
"Marstonpubs","52.60479","1.718414","","Grayling","3 Mitchell Drive, Jones Way, Norfolk, Norfolk, NR31 0GB","01493202300","Grayling.GreatYarmouth@marstons.co.uk","https://www.graylingpubgreatyarmouth.co.uk/"
"Marstonpubs","52.679512","-2.478405","","Grazing Cow","Gresham Drive, Telford, Shropshire, TF3 5ES","01952501562","GrazingCow.Lawley@marstons.co.uk","https://www.grazingcowpublawley.co.uk/"
"Marstonpubs","52.55403","-2.074364","","Great Western","Bradley, Bilston, West Midlands, WV14 8UP","01902597515","GreatWestern.Bilston@phoenixpub.co.uk",""
"Marstonpubs","54.288605","-1.592621","","Green Dragon","High Street, Bedale, North Yorkshire, DL8 1EQ","01677425246","barracbchef@aol.com","https://greendragonbedale.co.uk/"
"Marstonpubs","53.732693","-0.550744","","Green Dragon","Cowgate, Welton, East Yorkshire, HU15 1NB","01482 666700","greendragon.welton@marstons.co.uk","https://www.greendragonpubwelton.co.uk/"
"Marstonpubs","51.58277","-3.219025","","Green Lady","Pontygwyndy Road, Caerphilly, Mid Glamorgan, CF83 3HF","02921358743","GreenLady.Caerphilly@marstons.co.uk","https://www.greenladypubcaerphilly.co.uk/"
"Marstonpubs","53.391052","-3.185185","","Green Lodge Hotel","2 Stanley Road, Hoylake, Merseyside, CH47 1HW","0151 6322321","greenlodgehotel.wirral@marstons.co.uk","https://www.greenlodgehotelpub.co.uk/"
"Marstonpubs","52.5127","-2.204154","","Green Man","High Street, Swindon, Dudley, West Midlands, DY3 4NR","01384400532","donnamharley1970@gmail.co.uk","http://www.greenmanswindon.co.uk/"
"Marstonpubs","51.633564","-3.002654","","Greenhouse","Newport Road, 100470, Cwmbran, NP44 3BP","01633 863388","Greenhouse.Cwmbran@marstons.co.uk","https://sabrainpubs.com/pubs-and-hotels/south-wales/newport-torfaen/greenhouse"
"Marstonpubs","54.670624","-1.218345","","Greenside","Stockton Road, Hartlepool, County Durham, TS25 5BQ","01429 272668","Greenside.Hartlepool@phoenixpub.co.uk","https://www.greensidepub.co.uk/"
"Marstonpubs","52.67125","0.950802","","Greenstone","Napier Way, Norfolk, Norfolk, NR19 1FS","01362 788080","Greenstone.Dereham@marstons.co.uk","https://www.greenstonepubdereham.co.uk/"
"Marstonpubs","53.414658","-2.572318","","Greenwood Hotel","Greenwood Crescent, Warrington, Cheshire, WA2 0EQ","01925 558481","greenwood.hotel.warrington@phoenixpub.co.uk",""
"Marstonpubs","51.87862","-2.204736","","Greyhound","Longlevens, Gloucester, Gloucestershire, GL2 0XH","01452 506107","greyhound.gloucester@marstons.co.uk","https://www.greyhoundpubgloucester.co.uk/"
"Marstonpubs","53.129864","-1.417584","","Greyhound","Main Road, Old Higham Village, Derbyshire, DE55 6EF","01773 832016","greyhound.higham@marstons.co.uk","https://www.greyhoundpuboldhighamvillage.co.uk/"
"Marstonpubs","53.053368","-2.970901","","Greyhound","222 Holt Road, Rhosnesni, Wrexham, Clwyd, LL13 9EB","01978 290041","darrennixon29@gmail.com",""
"Marstonpubs","52.5104","-2.083882","","Griffin","8 Stone Street, Dudley, West Midlands, DY1 1NS","01384231084","Griffin.Dudley@phoenixpub.co.uk",""
"Marstonpubs","52.495094","-1.473917","","Griffin","Griff, Nuneaton, Warwickshire, CV10 7PJ","02476 311870","griffin.bedworth@marstons.co.uk","https://www.griffinpubnuneaton.co.uk/"
"Marstonpubs","53.67586","-1.914253","","Griffin","57 Stainland Road, Barkisland, Halifax, West Yorkshire, HX4 0AQ","01442401202","Griffin.Barkisland@phoenixpub.co.uk","https://thegriffinbarkisland.com/"
"Marstonpubs","52.77212","-1.209394","","Griffin","Ashby Square, Loughborough, Leicestershire, LE11 5AA","01509 263893","griffin.loughborough@phoenixpub.co.uk","https://www.griffinloughborough.co.uk/"
"Marstonpubs","52.135895","-1.270934","","Griffin Inn","Culworth Road, Chipping Warden, Banbury, Northamptonshire, OX17 1LB","01295 660311","GriffinInn.Banbury@phoenixpub.co.uk","https://www.griffininnbanburypub.co.uk/"
"Marstonpubs","53.18865","-1.619681","","Grouse & Claret","Station Road, Rowsley, Derbyshire, DE4 2EB","01629 733233","grouseandclaret.matlock@marstons.co.uk","https://www.grouseclaretpub.co.uk/"
"Marstonpubs","53.523056","-2.216015","","Grove","1097 Rochdale Road, Blackley, Manchester, Greater Manchester, M9 7FW","0161 795 4909","Grove.Blackley@phoenixpub.co.uk",""
"Marstonpubs","52.79461","-1.615041","","Grove Hotel","Merrydale Road, Stapenhill, Burton upon Trent, Staffordshire, DE15 9DQ","01283 683745","egold23.eg@gmail.com",""
"Marstonpubs","52.697937","-2.749861","","Grove Hotel","Bell Vue, Shrewsbury, Shropshire, SY3 7NN","01743741278","GroveHotel.Shrewsbury@phoenixpub.co.uk",""
"Marstonpubs","51.880756","-5.263295","","Grove Hotel","High Street, 101101, St Davids, SA62 6SB","01437 720341","GroveHotel.StDavids@marstons.co.uk","http://www.grovehotelstdavidspembrokeshire.co.uk/"
"Marstonpubs","53.65342","-3.011132","","Guelder Rose","50 Marine Drive, Southport, Merseyside, PR8 1RY","01704 546803","GuelderRose.Southport@marstons.co.uk","https://www.guelderrosepubsouthport.co.uk/"
"Marstonpubs","53.788","-2.747389","","Guild Merchant","440 Tag Lane, Preston, Lancashire, PR2 7AB","01772 378054","GuildMerchant.Preston@phoenixpub.co.uk","https://www.guildmerchantpubpreston.co.uk/"
"Marstonpubs","50.86735","-0.408338","","Gun Inn","High Street, Findon, West Sussex, BN14 0TA","01903 872235","info@thegunfindon.co.uk","https://www.hegunfindon.co.uk/"
"Marstonpubs","52.575394","-2.15758","","Gunmakers Arms","Bradmore, Wolverhampton, West Midlands, WV3 7JE","01902331414","gunmakersarms.wolverhampton@phoenixpub.co.uk","https://www.gunmakersarmspub.co.uk/"
"Marstonpubs","51.30588","0.900596","","Gunpowder Mill","London Road, Faversham, Kent, ME13 8XE","01795342684","GunpowderMill.Faversham@marstons.co.uk","https://www.gunpowdermillpubfaversham.co.uk/"
"Marstonpubs","52.45506","-2.121846","","Hadcroft","Lye, Stourbridge, West Midlands, DY9 7DX","01384 422061","hadcroft.lye@marstons.co.uk","https://www.hadcroftpub.co.uk/"
"Marstonpubs","50.946365","-2.515843","","Half Moon","Half Moon Street, Sherborne, Dorset, DT9 3LN","01935 812017","HalfMoon.Sherborne@marstons.co.uk","https://www.halfmoonpubsherborne.co.uk/"
"Marstonpubs","53.864162","-0.666264","","Half Moon Inn","39 High Street, Market Weighton, York, East Yorkshire, YO43 3AQ","01430 236836","HalfMoon.MarketWeighton@phoenixpub.co.uk",""
"Marstonpubs","53.734158","-0.374181","","Halfway Hotel","Hessel Road, Hull, East Yorkshire, HU3 5AA","01482 229046","Halfway.Hull@phoenixpub.co.uk",""
"Marstonpubs","51.48892","-3.201096","","Halfway Hotel","Cathedral Road, 105619, Cardiff, CF11 9PP","02920 667135","HalfwayHotel.Pontcanna@phoenixpub.co.uk","https://sabrainpubs.com/pubs-and-hotels/south-wales/cardiff/halfway"
